{"1:R826":{"id":"1:R826","shortName":"1","color":"11518A","mode":"BUS","patterns":[{"patternSuffix":"1:01","directionId":1,"firstStop":{"id":"1:145","name":"Mshenebelta Str. (Cement Factory)"},"lastStop":{"id":"1:145","name":"Mshenebelta Str. (Cement Factory)"},"headsign":"Mshenebelta-Megobroba-Shartava-Leonidze-Todria-Pirosmani"}],"defaultPatternSuffix":"1:01","_stopsOfPatterns":[{"stop":{"id":"1:145","code":"48","name":"Mshenebelta Str. (Cement Factory)","lat":41.5113,"lon":45.043052,"vehicleMode":"BUS"},"patternSuffixes":["1:01"]},{"stop":{"id":"1:12","code":"4","name":"Prison N17","lat":41.517498,"lon":45.036365,"vehicleMode":"BUS"},"patternSuffixes":["1:01"]},{"stop":{"id":"1:22","code":"5","name":"Mari Arkhi Settlement No. 2 (Swings)","lat":41.520362,"lon":45.025873,"vehicleMode":"BUS"},"patternSuffixes":["1:01"]},{"stop":{"id":"1:2924","code":"233","name":"Mshenebelta 64 (blind)","lat":41.521227,"lon":45.025081,"vehicleMode":"BUS"},"patternSuffixes":["1:01"]},{"stop":{"id":"1:25","code":"6","name":"Mshenebelta Str. (near the first zone)","lat":41.526913,"lon":45.020259,"vehicleMode":"BUS"},"patternSuffixes":["1:01"]},{"stop":{"id":"1:2925","code":"234","name":"Mshenebelta Str. former (Ven Dispensary)","lat":41.532321,"lon":45.01508,"vehicleMode":"BUS"},"patternSuffixes":["1:01"]},{"stop":{"id":"1:2929","code":"236","name":"Pirosmani Str. #30","lat":41.535096,"lon":45.015369,"vehicleMode":"BUS"},"patternSuffixes":["1:01"]},{"stop":{"id":"1:31","code":"8","name":"Pirosmani Str. N16 (Monitor)","lat":41.537693,"lon":45.012805,"vehicleMode":"BUS"},"patternSuffixes":["1:01"]},{"stop":{"id":"1:34","code":"9","name":"Pirosmani Str. (Polyclinic N1)","lat":41.539466,"lon":45.011046,"vehicleMode":"BUS"},"patternSuffixes":["1:01"]},{"stop":{"id":"1:37","code":"10","name":"Pirosmani Str. (Opposite to theater)","lat":41.541598,"lon":45.010082,"vehicleMode":"BUS"},"patternSuffixes":["1:01"]},{"stop":{"id":"1:466","code":"153","name":"Kostava Str. #23","lat":41.54253,"lon":45.012881,"vehicleMode":"BUS"},"patternSuffixes":["1:01"]},{"stop":{"id":"1:210","code":"102","name":"Kostava Str. #22","lat":41.542729,"lon":45.012958,"vehicleMode":"BUS"},"patternSuffixes":["1:01"]},{"stop":{"id":"1:20579","code":"574","name":"კოსტავას გამზირი #18","lat":41.543578,"lon":45.01053,"vehicleMode":"BUS"},"patternSuffixes":["1:01"]},{"stop":{"id":"1:43","code":"12","name":"Kostava Ave. N12","lat":41.544652,"lon":45.007646,"vehicleMode":"BUS"},"patternSuffixes":["1:01"]},{"stop":{"id":"1:46","code":"13","name":"Kostava Ave. N23","lat":41.545831,"lon":45.00441,"vehicleMode":"BUS"},"patternSuffixes":["1:01"]},{"stop":{"id":"1:49","code":"14","name":"Khalkhta Megobroba Avenue","lat":41.550605,"lon":44.992673,"vehicleMode":"BUS"},"patternSuffixes":["1:01"]},{"stop":{"id":"1:52","code":"15","name":"People's Friendship Avenue #5","lat":41.55177,"lon":44.988299,"vehicleMode":"BUS"},"patternSuffixes":["1:01"]},{"stop":{"id":"1:544","code":"52","name":"Khalkhta Megobroba Str. N9 (Post Office)","lat":41.552529,"lon":44.986488,"vehicleMode":"BUS"},"patternSuffixes":["1:01"]},{"stop":{"id":"1:55","code":"16","name":"People's Friendship Avenue (House of Justice)","lat":41.555869,"lon":44.98328,"vehicleMode":"BUS"},"patternSuffixes":["1:01"]},{"stop":{"id":"1:58","code":"17","name":"People's Friendship Avenue #41","lat":41.5591,"lon":44.981144,"vehicleMode":"BUS"},"patternSuffixes":["1:01"]},{"stop":{"id":"1:61","code":"18","name":"People's Friendship Avenue (Polocninic #2)","lat":41.562368,"lon":44.979173,"vehicleMode":"BUS"},"patternSuffixes":["1:01"]},{"stop":{"id":"1:64","code":"19","name":"Zh. Shartava Ave. N7","lat":41.564645,"lon":44.976194,"vehicleMode":"BUS"},"patternSuffixes":["1:01"]},{"stop":{"id":"1:67","code":"20","name":"Zh. Shartava Avenue #15","lat":41.565753,"lon":44.973673,"vehicleMode":"BUS"},"patternSuffixes":["1:01"]},{"stop":{"id":"1:70","code":"21","name":"Zh. Shartava Avenue #21","lat":41.567533,"lon":44.969223,"vehicleMode":"BUS"},"patternSuffixes":["1:01"]},{"stop":{"id":"1:73","code":"22","name":"Zh. Shartava Avenue #25","lat":41.569296,"lon":44.964999,"vehicleMode":"BUS"},"patternSuffixes":["1:01"]},{"stop":{"id":"1:76","code":"23","name":"Kutaisi Str.#22 School","lat":41.571949,"lon":44.966112,"vehicleMode":"BUS"},"patternSuffixes":["1:01"]},{"stop":{"id":"1:79","code":"24","name":"21 Micro District #6","lat":41.573954,"lon":44.968277,"vehicleMode":"BUS"},"patternSuffixes":["1:01"]},{"stop":{"id":"1:82","code":"25","name":"21st microdistrict Nearby the building #12","lat":41.572716,"lon":44.971269,"vehicleMode":"BUS"},"patternSuffixes":["1:01"]},{"stop":{"id":"1:88","code":"27","name":"Leonidze Str.#26","lat":41.569622,"lon":44.978709,"vehicleMode":"BUS"},"patternSuffixes":["1:01"]},{"stop":{"id":"1:91","code":"28","name":"Leonidze Str.#22","lat":41.56872,"lon":44.98089,"vehicleMode":"BUS"},"patternSuffixes":["1:01"]},{"stop":{"id":"1:94","code":"29","name":"Leonidze Str.#12","lat":41.567206,"lon":44.984524,"vehicleMode":"BUS"},"patternSuffixes":["1:01"]},{"stop":{"id":"1:97","code":"30","name":"Meskhishvili Str. (in front of \"Spar\" store) – Monitor","lat":41.564804,"lon":44.983837,"vehicleMode":"BUS"},"patternSuffixes":["1:01"]},{"stop":{"id":"1:100","code":"31","name":"Todria Lane II nearby building #1","lat":41.561395,"lon":44.98558,"vehicleMode":"BUS"},"patternSuffixes":["1:01"]},{"stop":{"id":"1:103","code":"32","name":"Todria lane I","lat":41.55928,"lon":44.986928,"vehicleMode":"BUS"},"patternSuffixes":["1:01"]},{"stop":{"id":"1:106","code":"33","name":"Kldiashvili Str. N11","lat":41.557006,"lon":44.987792,"vehicleMode":"BUS"},"patternSuffixes":["1:01"]},{"stop":{"id":"1:1446","code":"215","name":"Kldiashvili Str. #7 Opposite","lat":41.555681,"lon":44.984182,"vehicleMode":"BUS"},"patternSuffixes":["1:01"]},{"stop":{"id":"1:109","code":"34","name":"People's Friendship Avenue #14","lat":41.55374,"lon":44.984489,"vehicleMode":"BUS"},"patternSuffixes":["1:01"]},{"stop":{"id":"1:603","code":"92","name":"Khalkhta Megobroba Ave. N6","lat":41.55144,"lon":44.988717,"vehicleMode":"BUS"},"patternSuffixes":["1:01"]},{"stop":{"id":"1:113","code":"36","name":"People's Friendship Avenue (Heroes Square)","lat":41.549886,"lon":44.991716,"vehicleMode":"BUS"},"patternSuffixes":["1:01"]},{"stop":{"id":"1:116","code":"37","name":"Kostava Ave. N1","lat":41.545643,"lon":45.004474,"vehicleMode":"BUS"},"patternSuffixes":["1:01"]},{"stop":{"id":"1:119","code":"38","name":"Kostava Ave. N17","lat":41.543709,"lon":45.009711,"vehicleMode":"BUS"},"patternSuffixes":["1:01"]},{"stop":{"id":"1:122","code":"39","name":"Pirosmani Str. Opposite to theater","lat":41.541267,"lon":45.009921,"vehicleMode":"BUS"},"patternSuffixes":["1:01"]},{"stop":{"id":"1:1523","code":"218","name":"Pirosmani Str. (Polyclinic #1) Opposite","lat":41.539365,"lon":45.01098,"vehicleMode":"BUS"},"patternSuffixes":["1:01"]},{"stop":{"id":"1:128","code":"41","name":"Pirosmani Str. N19","lat":41.537623,"lon":45.012691,"vehicleMode":"BUS"},"patternSuffixes":["1:01"]},{"stop":{"id":"1:2926","code":"235","name":"Pirosmani Str. #31","lat":41.534888,"lon":45.015234,"vehicleMode":"BUS"},"patternSuffixes":["1:01"]},{"stop":{"id":"1:137","code":"44","name":"Builders Street (former Commissariat)","lat":41.532366,"lon":45.014863,"vehicleMode":"BUS"},"patternSuffixes":["1:01"]},{"stop":{"id":"1:140","code":"45","name":"Penitentiary Institution #16","lat":41.526288,"lon":45.020213,"vehicleMode":"BUS"},"patternSuffixes":["1:01"]},{"stop":{"id":"1:163","code":"55","name":"Opposite to Prison N17","lat":41.517409,"lon":45.036212,"vehicleMode":"BUS"},"patternSuffixes":["1:01"]}]},"1:R846":{"id":"1:R846","shortName":"2","color":"11518A","mode":"BUS","patterns":[{"patternSuffix":"1:01","directionId":1,"firstStop":{"id":"1:148","name":"Balanchivadze Street #14"},"lastStop":{"id":"1:148","name":"Balanchivadze Street #14"},"headsign":"Megobroba-Todria-Aghmashenebeli-Shartava-Gagarini-Balanchivadze"}],"defaultPatternSuffix":"1:01","_stopsOfPatterns":[{"stop":{"id":"1:148","code":"53","name":"Balanchivadze Street #14","lat":41.558798,"lon":45.01443,"vehicleMode":"BUS"},"patternSuffixes":["1:01"]},{"stop":{"id":"1:154","code":"54","name":"Balanchivadze Street #6","lat":41.557259,"lon":45.01768,"vehicleMode":"BUS"},"patternSuffixes":["1:01"]},{"stop":{"id":"1:168","code":"56","name":"Rustaveli Str. N50","lat":41.554842,"lon":45.018199,"vehicleMode":"BUS"},"patternSuffixes":["1:01"]},{"stop":{"id":"1:171","code":"57","name":"Rustaveli Str. N44","lat":41.553694,"lon":45.017394,"vehicleMode":"BUS"},"patternSuffixes":["1:01"]},{"stop":{"id":"1:174","code":"58","name":"Rustaveli Street (Chemist's House)","lat":41.550287,"lon":45.015203,"vehicleMode":"BUS"},"patternSuffixes":["1:01"]},{"stop":{"id":"1:177","code":"59","name":"Rustaveli Str. (Batumi Square)","lat":41.546782,"lon":45.012915,"vehicleMode":"BUS"},"patternSuffixes":["1:01"]},{"stop":{"id":"1:279","code":"114","name":"Rustaveli Str.(Opposite to the music school)","lat":41.544931,"lon":45.011725,"vehicleMode":"BUS"},"patternSuffixes":["1:01"]},{"stop":{"id":"1:20579","code":"574","name":"კოსტავას გამზირი #18","lat":41.543578,"lon":45.01053,"vehicleMode":"BUS"},"patternSuffixes":["1:01"]},{"stop":{"id":"1:43","code":"12","name":"Kostava Ave. N12","lat":41.544652,"lon":45.007646,"vehicleMode":"BUS"},"patternSuffixes":["1:01"]},{"stop":{"id":"1:46","code":"13","name":"Kostava Ave. N23","lat":41.545831,"lon":45.00441,"vehicleMode":"BUS"},"patternSuffixes":["1:01"]},{"stop":{"id":"1:49","code":"14","name":"Khalkhta Megobroba Avenue","lat":41.550605,"lon":44.992673,"vehicleMode":"BUS"},"patternSuffixes":["1:01"]},{"stop":{"id":"1:52","code":"15","name":"People's Friendship Avenue #5","lat":41.55177,"lon":44.988299,"vehicleMode":"BUS"},"patternSuffixes":["1:01"]},{"stop":{"id":"1:544","code":"52","name":"Khalkhta Megobroba Str. N9 (Post Office)","lat":41.552529,"lon":44.986488,"vehicleMode":"BUS"},"patternSuffixes":["1:01"]},{"stop":{"id":"1:183","code":"61","name":"Kldiashvili Str. N7","lat":41.555455,"lon":44.98398,"vehicleMode":"BUS"},"patternSuffixes":["1:01"]},{"stop":{"id":"1:186","code":"62","name":"Kldiashvili Street #15","lat":41.556832,"lon":44.987832,"vehicleMode":"BUS"},"patternSuffixes":["1:01"]},{"stop":{"id":"1:189","code":"63","name":"Todria Str. #5","lat":41.558901,"lon":44.987401,"vehicleMode":"BUS"},"patternSuffixes":["1:01"]},{"stop":{"id":"1:192","code":"64","name":"Todria Str. #15","lat":41.561625,"lon":44.985624,"vehicleMode":"BUS"},"patternSuffixes":["1:01"]},{"stop":{"id":"1:195","code":"65","name":"Todria Str. (Circle)","lat":41.564993,"lon":44.984226,"vehicleMode":"BUS"},"patternSuffixes":["1:01"]},{"stop":{"id":"1:201","code":"66","name":"16th Microdistrict #6","lat":41.56807,"lon":44.986498,"vehicleMode":"BUS"},"patternSuffixes":["1:01"]},{"stop":{"id":"1:390","code":"138","name":"Aghmashenebeli Avenue (opposite rugby field)","lat":41.570422,"lon":44.992911,"vehicleMode":"BUS"},"patternSuffixes":["1:01"]},{"stop":{"id":"1:20585","code":"575","name":"სანაპიროს ქუჩა მე 11 ე მკ/რნ-ს მიმდებარედ","lat":41.566056,"lon":44.997032,"vehicleMode":"BUS"},"patternSuffixes":["1:01"]},{"stop":{"id":"1:213","code":"68","name":"12th Microdistrict(Rugby field)","lat":41.570554,"lon":44.993028,"vehicleMode":"BUS"},"patternSuffixes":["1:01"]},{"stop":{"id":"1:216","code":"69","name":"Agmashenebeli Avenue, 18th block, entrance","lat":41.573459,"lon":44.985977,"vehicleMode":"BUS"},"patternSuffixes":["1:01"]},{"stop":{"id":"1:9364","code":"504","name":"18-19th Microdistrict Square","lat":41.575654,"lon":44.986515,"vehicleMode":"BUS"},"patternSuffixes":["1:01"]},{"stop":{"id":"1:9382","code":"511","name":"19th  microdistrict (school #10)","lat":41.575687,"lon":44.985352,"vehicleMode":"BUS"},"patternSuffixes":["1:01"]},{"stop":{"id":"1:306","code":"122","name":"19th Microdistrict (nearby Madagoni)","lat":41.574794,"lon":44.982852,"vehicleMode":"BUS"},"patternSuffixes":["1:01"]},{"stop":{"id":"1:225","code":"71","name":"17th Microdistrict, Opposite Building #15","lat":41.574883,"lon":44.979045,"vehicleMode":"BUS"},"patternSuffixes":["1:01"]},{"stop":{"id":"1:339","code":"91","name":"Opposite to building 1, 17th microdistrict","lat":41.57198,"lon":44.976769,"vehicleMode":"BUS"},"patternSuffixes":["1:01"]},{"stop":{"id":"1:420","code":"143","name":"Leonidze Street, the beginning of the auto repair shops","lat":41.570974,"lon":44.975889,"vehicleMode":"BUS"},"patternSuffixes":["1:01"]},{"stop":{"id":"1:12617","code":"551","name":"21st  microdistrict opposite to #12","lat":41.572814,"lon":44.971394,"vehicleMode":"BUS"},"patternSuffixes":["1:01"]},{"stop":{"id":"1:231","code":"73","name":"21st Microdistrict, opposite building #1","lat":41.573715,"lon":44.969214,"vehicleMode":"BUS"},"patternSuffixes":["1:01"]},{"stop":{"id":"1:234","code":"74","name":"Kutaisi Str. Opposite to N22 School","lat":41.571811,"lon":44.965682,"vehicleMode":"BUS"},"patternSuffixes":["1:01"]},{"stop":{"id":"1:237","code":"75","name":"Zh. Shartava Ave. N14","lat":41.56905,"lon":44.964746,"vehicleMode":"BUS"},"patternSuffixes":["1:01"]},{"stop":{"id":"1:240","code":"76","name":"Shartava Avenue #8","lat":41.567036,"lon":44.969573,"vehicleMode":"BUS"},"patternSuffixes":["1:01"]},{"stop":{"id":"1:433","code":"146","name":"Shartava Avenue #4a","lat":41.565646,"lon":44.972885,"vehicleMode":"BUS"},"patternSuffixes":["1:01"]},{"stop":{"id":"1:439","code":"147","name":"Shartava Avenue #2","lat":41.564371,"lon":44.976039,"vehicleMode":"BUS"},"patternSuffixes":["1:01"]},{"stop":{"id":"1:249","code":"77","name":"შარტავას გამზირი (რუსთაველის მოედანი)","lat":41.562696,"lon":44.978159,"vehicleMode":"BUS"},"patternSuffixes":["1:01"]},{"stop":{"id":"1:4212","code":"295","name":"People's Friendship Avenue (nearby hotel Rustavi)","lat":41.561571,"lon":44.979049,"vehicleMode":"BUS"},"patternSuffixes":["1:01"]},{"stop":{"id":"1:255","code":"78","name":"Khalkhta Megobroba Ave. N26","lat":41.558692,"lon":44.981024,"vehicleMode":"BUS"},"patternSuffixes":["1:01"]},{"stop":{"id":"1:276","code":"113","name":"People's Friendship Avenue (archive)","lat":41.555641,"lon":44.983029,"vehicleMode":"BUS"},"patternSuffixes":["1:01"]},{"stop":{"id":"1:109","code":"34","name":"People's Friendship Avenue #14","lat":41.55374,"lon":44.984489,"vehicleMode":"BUS"},"patternSuffixes":["1:01"]},{"stop":{"id":"1:603","code":"92","name":"Khalkhta Megobroba Ave. N6","lat":41.55144,"lon":44.988717,"vehicleMode":"BUS"},"patternSuffixes":["1:01"]},{"stop":{"id":"1:113","code":"36","name":"People's Friendship Avenue (Heroes Square)","lat":41.549886,"lon":44.991716,"vehicleMode":"BUS"},"patternSuffixes":["1:01"]},{"stop":{"id":"1:116","code":"37","name":"Kostava Ave. N1","lat":41.545643,"lon":45.004474,"vehicleMode":"BUS"},"patternSuffixes":["1:01"]},{"stop":{"id":"1:119","code":"38","name":"Kostava Ave. N17","lat":41.543709,"lon":45.009711,"vehicleMode":"BUS"},"patternSuffixes":["1:01"]},{"stop":{"id":"1:466","code":"153","name":"Kostava Str. #23","lat":41.54253,"lon":45.012881,"vehicleMode":"BUS"},"patternSuffixes":["1:01"]},{"stop":{"id":"1:309","code":"80","name":"Kostava Ave. N33","lat":41.541146,"lon":45.01647,"vehicleMode":"BUS"},"patternSuffixes":["1:01"]},{"stop":{"id":"1:198","code":"100","name":"Gagarini Str. #12 (Metallurgical Plant)","lat":41.539616,"lon":45.021242,"vehicleMode":"BUS"},"patternSuffixes":["1:01"]},{"stop":{"id":"1:294","code":"119","name":"Gagarini Str. (former technical school)","lat":41.544258,"lon":45.023811,"vehicleMode":"BUS"},"patternSuffixes":["1:01"]},{"stop":{"id":"1:315","code":"81","name":"D. Gareji Street (former trolleybus station)","lat":41.548025,"lon":45.024035,"vehicleMode":"BUS"},"patternSuffixes":["1:01"]},{"stop":{"id":"1:27823","code":"577","name":"დავით გარეჯის 21ა (მოპირდაპირედ)","lat":41.551067,"lon":45.021068,"vehicleMode":"BUS"},"patternSuffixes":["1:01"]},{"stop":{"id":"1:318","code":"82","name":"D. Gareji Str. #16","lat":41.552071,"lon":45.020134,"vehicleMode":"BUS"},"patternSuffixes":["1:01"]},{"stop":{"id":"1:321","code":"83","name":"D. Gareji Str. #8","lat":41.554722,"lon":45.017468,"vehicleMode":"BUS"},"patternSuffixes":["1:01"]}]},"1:R1572":{"id":"1:R1572","shortName":"3","color":"11518A","mode":"BUS","patterns":[{"patternSuffix":"1:01","directionId":1,"firstStop":{"id":"1:1569","name":"Railway Station"},"lastStop":{"id":"1:1569","name":"Railway Station"},"headsign":"Shartava-Megobroba-Metallurgical Plant-Rustaveli"}],"defaultPatternSuffix":"1:01","_stopsOfPatterns":[{"stop":{"id":"1:1569","code":"219","name":"Railway Station","lat":41.555916,"lon":45.019168,"vehicleMode":"BUS"},"patternSuffixes":["1:01"]},{"stop":{"id":"1:168","code":"56","name":"Rustaveli Str. N50","lat":41.554842,"lon":45.018199,"vehicleMode":"BUS"},"patternSuffixes":["1:01"]},{"stop":{"id":"1:171","code":"57","name":"Rustaveli Str. N44","lat":41.553694,"lon":45.017394,"vehicleMode":"BUS"},"patternSuffixes":["1:01"]},{"stop":{"id":"1:174","code":"58","name":"Rustaveli Street (Chemist's House)","lat":41.550287,"lon":45.015203,"vehicleMode":"BUS"},"patternSuffixes":["1:01"]},{"stop":{"id":"1:177","code":"59","name":"Rustaveli Str. (Batumi Square)","lat":41.546782,"lon":45.012915,"vehicleMode":"BUS"},"patternSuffixes":["1:01"]},{"stop":{"id":"1:279","code":"114","name":"Rustaveli Str.(Opposite to the music school)","lat":41.544931,"lon":45.011725,"vehicleMode":"BUS"},"patternSuffixes":["1:01"]},{"stop":{"id":"1:20579","code":"574","name":"კოსტავას გამზირი #18","lat":41.543578,"lon":45.01053,"vehicleMode":"BUS"},"patternSuffixes":["1:01"]},{"stop":{"id":"1:43","code":"12","name":"Kostava Ave. N12","lat":41.544652,"lon":45.007646,"vehicleMode":"BUS"},"patternSuffixes":["1:01"]},{"stop":{"id":"1:46","code":"13","name":"Kostava Ave. N23","lat":41.545831,"lon":45.00441,"vehicleMode":"BUS"},"patternSuffixes":["1:01"]},{"stop":{"id":"1:49","code":"14","name":"Khalkhta Megobroba Avenue","lat":41.550605,"lon":44.992673,"vehicleMode":"BUS"},"patternSuffixes":["1:01"]},{"stop":{"id":"1:52","code":"15","name":"People's Friendship Avenue #5","lat":41.55177,"lon":44.988299,"vehicleMode":"BUS"},"patternSuffixes":["1:01"]},{"stop":{"id":"1:544","code":"52","name":"Khalkhta Megobroba Str. N9 (Post Office)","lat":41.552529,"lon":44.986488,"vehicleMode":"BUS"},"patternSuffixes":["1:01"]},{"stop":{"id":"1:55","code":"16","name":"People's Friendship Avenue (House of Justice)","lat":41.555869,"lon":44.98328,"vehicleMode":"BUS"},"patternSuffixes":["1:01"]},{"stop":{"id":"1:58","code":"17","name":"People's Friendship Avenue #41","lat":41.5591,"lon":44.981144,"vehicleMode":"BUS"},"patternSuffixes":["1:01"]},{"stop":{"id":"1:61","code":"18","name":"People's Friendship Avenue (Polocninic #2)","lat":41.562368,"lon":44.979173,"vehicleMode":"BUS"},"patternSuffixes":["1:01"]},{"stop":{"id":"1:64","code":"19","name":"Zh. Shartava Ave. N7","lat":41.564645,"lon":44.976194,"vehicleMode":"BUS"},"patternSuffixes":["1:01"]},{"stop":{"id":"1:67","code":"20","name":"Zh. Shartava Avenue #15","lat":41.565753,"lon":44.973673,"vehicleMode":"BUS"},"patternSuffixes":["1:01"]},{"stop":{"id":"1:11908","code":"530","name":"7th microdistrict nearby #17","lat":41.563689,"lon":44.970778,"vehicleMode":"BUS"},"patternSuffixes":["1:01"]},{"stop":{"id":"1:11917","code":"533","name":"7th microdistrict nearby #26","lat":41.562687,"lon":44.966458,"vehicleMode":"BUS"},"patternSuffixes":["1:01"]},{"stop":{"id":"1:11918","code":"534","name":"7th microdistrict #15","lat":41.565069,"lon":44.967071,"vehicleMode":"BUS"},"patternSuffixes":["1:01"]},{"stop":{"id":"1:73","code":"22","name":"Zh. Shartava Avenue #25","lat":41.569296,"lon":44.964999,"vehicleMode":"BUS"},"patternSuffixes":["1:01"]},{"stop":{"id":"1:237","code":"75","name":"Zh. Shartava Ave. N14","lat":41.56905,"lon":44.964746,"vehicleMode":"BUS"},"patternSuffixes":["1:01"]},{"stop":{"id":"1:11921","code":"535","name":"8th microdistrict #5a","lat":41.565236,"lon":44.966974,"vehicleMode":"BUS"},"patternSuffixes":["1:01"]},{"stop":{"id":"1:11914","code":"532","name":"7th microdistrict opposite #26","lat":41.562511,"lon":44.966662,"vehicleMode":"BUS"},"patternSuffixes":["1:01"]},{"stop":{"id":"1:11911","code":"531","name":"7th microdistrict opposite #16","lat":41.563839,"lon":44.970959,"vehicleMode":"BUS"},"patternSuffixes":["1:01"]},{"stop":{"id":"1:433","code":"146","name":"Shartava Avenue #4a","lat":41.565646,"lon":44.972885,"vehicleMode":"BUS"},"patternSuffixes":["1:01"]},{"stop":{"id":"1:439","code":"147","name":"Shartava Avenue #2","lat":41.564371,"lon":44.976039,"vehicleMode":"BUS"},"patternSuffixes":["1:01"]},{"stop":{"id":"1:249","code":"77","name":"შარტავას გამზირი (რუსთაველის მოედანი)","lat":41.562696,"lon":44.978159,"vehicleMode":"BUS"},"patternSuffixes":["1:01"]},{"stop":{"id":"1:4212","code":"295","name":"People's Friendship Avenue (nearby hotel Rustavi)","lat":41.561571,"lon":44.979049,"vehicleMode":"BUS"},"patternSuffixes":["1:01"]},{"stop":{"id":"1:255","code":"78","name":"Khalkhta Megobroba Ave. N26","lat":41.558692,"lon":44.981024,"vehicleMode":"BUS"},"patternSuffixes":["1:01"]},{"stop":{"id":"1:276","code":"113","name":"People's Friendship Avenue (archive)","lat":41.555641,"lon":44.983029,"vehicleMode":"BUS"},"patternSuffixes":["1:01"]},{"stop":{"id":"1:109","code":"34","name":"People's Friendship Avenue #14","lat":41.55374,"lon":44.984489,"vehicleMode":"BUS"},"patternSuffixes":["1:01"]},{"stop":{"id":"1:603","code":"92","name":"Khalkhta Megobroba Ave. N6","lat":41.55144,"lon":44.988717,"vehicleMode":"BUS"},"patternSuffixes":["1:01"]},{"stop":{"id":"1:113","code":"36","name":"People's Friendship Avenue (Heroes Square)","lat":41.549886,"lon":44.991716,"vehicleMode":"BUS"},"patternSuffixes":["1:01"]},{"stop":{"id":"1:116","code":"37","name":"Kostava Ave. N1","lat":41.545643,"lon":45.004474,"vehicleMode":"BUS"},"patternSuffixes":["1:01"]},{"stop":{"id":"1:119","code":"38","name":"Kostava Ave. N17","lat":41.543709,"lon":45.009711,"vehicleMode":"BUS"},"patternSuffixes":["1:01"]},{"stop":{"id":"1:466","code":"153","name":"Kostava Str. #23","lat":41.54253,"lon":45.012881,"vehicleMode":"BUS"},"patternSuffixes":["1:01"]},{"stop":{"id":"1:309","code":"80","name":"Kostava Ave. N33","lat":41.541146,"lon":45.01647,"vehicleMode":"BUS"},"patternSuffixes":["1:01"]},{"stop":{"id":"1:198","code":"100","name":"Gagarini Str. #12 (Metallurgical Plant)","lat":41.539616,"lon":45.021242,"vehicleMode":"BUS"},"patternSuffixes":["1:01"]},{"stop":{"id":"1:207","code":"101","name":"Kostava Street #34","lat":41.54143,"lon":45.016624,"vehicleMode":"BUS"},"patternSuffixes":["1:01"]},{"stop":{"id":"1:210","code":"102","name":"Kostava Str. #22","lat":41.542729,"lon":45.012958,"vehicleMode":"BUS"},"patternSuffixes":["1:01"]},{"stop":{"id":"1:445","code":"190","name":"Rustaveli Str.(On the side of the music school)","lat":41.544919,"lon":45.011909,"vehicleMode":"BUS"},"patternSuffixes":["1:01"]},{"stop":{"id":"1:765","code":"189","name":"Rustaveli Str. (opposite to Batumi square)","lat":41.546731,"lon":45.013154,"vehicleMode":"BUS"},"patternSuffixes":["1:01"]},{"stop":{"id":"1:668","code":"95","name":"Rustaveli Street (Chemist's House)","lat":41.550162,"lon":45.015327,"vehicleMode":"BUS"},"patternSuffixes":["1:01"]},{"stop":{"id":"1:282","code":"115","name":"Rustaveli Str. #31","lat":41.553189,"lon":45.017263,"vehicleMode":"BUS"},"patternSuffixes":["1:01"]}]},"1:R854":{"id":"1:R854","shortName":"4","color":"11518A","mode":"BUS","patterns":[{"patternSuffix":"1:01","directionId":1,"firstStop":{"id":"1:198","name":"Gagarini Str. #12 (Metallurgical Plant)"},"lastStop":{"id":"1:198","name":"Gagarini Str. #12 (Metallurgical Plant)"},"headsign":"Megobroba-Todria-Shartava-Aghmashenebeli-Rustaveli-Gareji"}],"defaultPatternSuffix":"1:01","_stopsOfPatterns":[{"stop":{"id":"1:198","code":"100","name":"Gagarini Str. #12 (Metallurgical Plant)","lat":41.539616,"lon":45.021242,"vehicleMode":"BUS"},"patternSuffixes":["1:01"]},{"stop":{"id":"1:207","code":"101","name":"Kostava Street #34","lat":41.54143,"lon":45.016624,"vehicleMode":"BUS"},"patternSuffixes":["1:01"]},{"stop":{"id":"1:210","code":"102","name":"Kostava Str. #22","lat":41.542729,"lon":45.012958,"vehicleMode":"BUS"},"patternSuffixes":["1:01"]},{"stop":{"id":"1:20579","code":"574","name":"კოსტავას გამზირი #18","lat":41.543578,"lon":45.01053,"vehicleMode":"BUS"},"patternSuffixes":["1:01"]},{"stop":{"id":"1:43","code":"12","name":"Kostava Ave. N12","lat":41.544652,"lon":45.007646,"vehicleMode":"BUS"},"patternSuffixes":["1:01"]},{"stop":{"id":"1:46","code":"13","name":"Kostava Ave. N23","lat":41.545831,"lon":45.00441,"vehicleMode":"BUS"},"patternSuffixes":["1:01"]},{"stop":{"id":"1:49","code":"14","name":"Khalkhta Megobroba Avenue","lat":41.550605,"lon":44.992673,"vehicleMode":"BUS"},"patternSuffixes":["1:01"]},{"stop":{"id":"1:52","code":"15","name":"People's Friendship Avenue #5","lat":41.55177,"lon":44.988299,"vehicleMode":"BUS"},"patternSuffixes":["1:01"]},{"stop":{"id":"1:544","code":"52","name":"Khalkhta Megobroba Str. N9 (Post Office)","lat":41.552529,"lon":44.986488,"vehicleMode":"BUS"},"patternSuffixes":["1:01"]},{"stop":{"id":"1:183","code":"61","name":"Kldiashvili Str. N7","lat":41.555455,"lon":44.98398,"vehicleMode":"BUS"},"patternSuffixes":["1:01"]},{"stop":{"id":"1:186","code":"62","name":"Kldiashvili Street #15","lat":41.556832,"lon":44.987832,"vehicleMode":"BUS"},"patternSuffixes":["1:01"]},{"stop":{"id":"1:189","code":"63","name":"Todria Str. #5","lat":41.558901,"lon":44.987401,"vehicleMode":"BUS"},"patternSuffixes":["1:01"]},{"stop":{"id":"1:192","code":"64","name":"Todria Str. #15","lat":41.561625,"lon":44.985624,"vehicleMode":"BUS"},"patternSuffixes":["1:01"]},{"stop":{"id":"1:312","code":"123","name":"14th  microdistrict #10 Clinic","lat":41.563951,"lon":44.982021,"vehicleMode":"BUS"},"patternSuffixes":["1:01"]},{"stop":{"id":"1:64","code":"19","name":"Zh. Shartava Ave. N7","lat":41.564645,"lon":44.976194,"vehicleMode":"BUS"},"patternSuffixes":["1:01"]},{"stop":{"id":"1:67","code":"20","name":"Zh. Shartava Avenue #15","lat":41.565753,"lon":44.973673,"vehicleMode":"BUS"},"patternSuffixes":["1:01"]},{"stop":{"id":"1:70","code":"21","name":"Zh. Shartava Avenue #21","lat":41.567533,"lon":44.969223,"vehicleMode":"BUS"},"patternSuffixes":["1:01"]},{"stop":{"id":"1:73","code":"22","name":"Zh. Shartava Avenue #25","lat":41.569296,"lon":44.964999,"vehicleMode":"BUS"},"patternSuffixes":["1:01"]},{"stop":{"id":"1:76","code":"23","name":"Kutaisi Str.#22 School","lat":41.571949,"lon":44.966112,"vehicleMode":"BUS"},"patternSuffixes":["1:01"]},{"stop":{"id":"1:79","code":"24","name":"21 Micro District #6","lat":41.573954,"lon":44.968277,"vehicleMode":"BUS"},"patternSuffixes":["1:01"]},{"stop":{"id":"1:82","code":"25","name":"21st microdistrict Nearby the building #12","lat":41.572716,"lon":44.971269,"vehicleMode":"BUS"},"patternSuffixes":["1:01"]},{"stop":{"id":"1:243","code":"104","name":"Modebadze Str. #1(near the 17th Square)","lat":41.572028,"lon":44.977015,"vehicleMode":"BUS"},"patternSuffixes":["1:01"]},{"stop":{"id":"1:644","code":"79","name":"17th Microdistrict #28","lat":41.57488,"lon":44.979212,"vehicleMode":"BUS"},"patternSuffixes":["1:01"]},{"stop":{"id":"1:252","code":"106","name":"17th Microdistrict #13 (Opposite to Madagoni)","lat":41.57456,"lon":44.982972,"vehicleMode":"BUS"},"patternSuffixes":["1:01"]},{"stop":{"id":"1:258","code":"107","name":"16th Microdistrict #9","lat":41.573286,"lon":44.986109,"vehicleMode":"BUS"},"patternSuffixes":["1:01"]},{"stop":{"id":"1:336","code":"90","name":"16th microdistrict, Aghmashenebeli Str.#7","lat":41.572209,"lon":44.98853,"vehicleMode":"BUS"},"patternSuffixes":["1:01"]},{"stop":{"id":"1:264","code":"109","name":"12th Microdistrict Opposite to building #3","lat":41.57012,"lon":44.987864,"vehicleMode":"BUS"},"patternSuffixes":["1:01"]},{"stop":{"id":"1:267","code":"110","name":"Istanbul Bazaar Entrance","lat":41.56837,"lon":44.986542,"vehicleMode":"BUS"},"patternSuffixes":["1:01"]},{"stop":{"id":"1:97","code":"30","name":"Meskhishvili Str. (in front of \"Spar\" store) – Monitor","lat":41.564804,"lon":44.983837,"vehicleMode":"BUS"},"patternSuffixes":["1:01"]},{"stop":{"id":"1:100","code":"31","name":"Todria Lane II nearby building #1","lat":41.561395,"lon":44.98558,"vehicleMode":"BUS"},"patternSuffixes":["1:01"]},{"stop":{"id":"1:103","code":"32","name":"Todria lane I","lat":41.55928,"lon":44.986928,"vehicleMode":"BUS"},"patternSuffixes":["1:01"]},{"stop":{"id":"1:106","code":"33","name":"Kldiashvili Str. N11","lat":41.557006,"lon":44.987792,"vehicleMode":"BUS"},"patternSuffixes":["1:01"]},{"stop":{"id":"1:1446","code":"215","name":"Kldiashvili Str. #7 Opposite","lat":41.555681,"lon":44.984182,"vehicleMode":"BUS"},"patternSuffixes":["1:01"]},{"stop":{"id":"1:109","code":"34","name":"People's Friendship Avenue #14","lat":41.55374,"lon":44.984489,"vehicleMode":"BUS"},"patternSuffixes":["1:01"]},{"stop":{"id":"1:603","code":"92","name":"Khalkhta Megobroba Ave. N6","lat":41.55144,"lon":44.988717,"vehicleMode":"BUS"},"patternSuffixes":["1:01"]},{"stop":{"id":"1:113","code":"36","name":"People's Friendship Avenue (Heroes Square)","lat":41.549886,"lon":44.991716,"vehicleMode":"BUS"},"patternSuffixes":["1:01"]},{"stop":{"id":"1:116","code":"37","name":"Kostava Ave. N1","lat":41.545643,"lon":45.004474,"vehicleMode":"BUS"},"patternSuffixes":["1:01"]},{"stop":{"id":"1:119","code":"38","name":"Kostava Ave. N17","lat":41.543709,"lon":45.009711,"vehicleMode":"BUS"},"patternSuffixes":["1:01"]},{"stop":{"id":"1:445","code":"190","name":"Rustaveli Str.(On the side of the music school)","lat":41.544919,"lon":45.011909,"vehicleMode":"BUS"},"patternSuffixes":["1:01"]},{"stop":{"id":"1:765","code":"189","name":"Rustaveli Str. (opposite to Batumi square)","lat":41.546731,"lon":45.013154,"vehicleMode":"BUS"},"patternSuffixes":["1:01"]},{"stop":{"id":"1:668","code":"95","name":"Rustaveli Street (Chemist's House)","lat":41.550162,"lon":45.015327,"vehicleMode":"BUS"},"patternSuffixes":["1:01"]},{"stop":{"id":"1:282","code":"115","name":"Rustaveli Str. #31","lat":41.553189,"lon":45.017263,"vehicleMode":"BUS"},"patternSuffixes":["1:01"]},{"stop":{"id":"1:285","code":"116","name":"D. Gareji Str. #19","lat":41.552051,"lon":45.019923,"vehicleMode":"BUS"},"patternSuffixes":["1:01"]},{"stop":{"id":"1:27820","code":"576","name":"დავით გარეჯის 21ა","lat":41.550919,"lon":45.020987,"vehicleMode":"BUS"},"patternSuffixes":["1:01"]},{"stop":{"id":"1:288","code":"117","name":"D. Gareji Str. (\"SOCAR Georgia Gas\" Gas Station)","lat":41.548221,"lon":45.023608,"vehicleMode":"BUS"},"patternSuffixes":["1:01"]},{"stop":{"id":"1:291","code":"118","name":"Gagarini Str. (Restaurant Shankhai)","lat":41.546114,"lon":45.0249,"vehicleMode":"BUS"},"patternSuffixes":["1:01"]},{"stop":{"id":"1:430","code":"187","name":"Gagarini Str. (former technical school)","lat":41.544311,"lon":45.02372,"vehicleMode":"BUS"},"patternSuffixes":["1:01"]}]},"1:R835":{"id":"1:R835","shortName":"5","color":"11518A","mode":"BUS","patterns":[{"patternSuffix":"1:01","directionId":1,"firstStop":{"id":"1:198","name":"Gagarini Str. #12 (Metallurgical Plant)"},"lastStop":{"id":"1:198","name":"Gagarini Str. #12 (Metallurgical Plant)"},"headsign":"Tbilisi Str.-20 Microdistrict-Aghmashenebeli-11 Microdistrict-Leonidze"}],"defaultPatternSuffix":"1:01","_stopsOfPatterns":[{"stop":{"id":"1:198","code":"100","name":"Gagarini Str. #12 (Metallurgical Plant)","lat":41.539616,"lon":45.021242,"vehicleMode":"BUS"},"patternSuffixes":["1:01"]},{"stop":{"id":"1:207","code":"101","name":"Kostava Street #34","lat":41.54143,"lon":45.016624,"vehicleMode":"BUS"},"patternSuffixes":["1:01"]},{"stop":{"id":"1:210","code":"102","name":"Kostava Str. #22","lat":41.542729,"lon":45.012958,"vehicleMode":"BUS"},"patternSuffixes":["1:01"]},{"stop":{"id":"1:20579","code":"574","name":"კოსტავას გამზირი #18","lat":41.543578,"lon":45.01053,"vehicleMode":"BUS"},"patternSuffixes":["1:01"]},{"stop":{"id":"1:43","code":"12","name":"Kostava Ave. N12","lat":41.544652,"lon":45.007646,"vehicleMode":"BUS"},"patternSuffixes":["1:01"]},{"stop":{"id":"1:46","code":"13","name":"Kostava Ave. N23","lat":41.545831,"lon":45.00441,"vehicleMode":"BUS"},"patternSuffixes":["1:01"]},{"stop":{"id":"1:49","code":"14","name":"Khalkhta Megobroba Avenue","lat":41.550605,"lon":44.992673,"vehicleMode":"BUS"},"patternSuffixes":["1:01"]},{"stop":{"id":"1:2935","code":"238","name":"Tsurtaveli Str.#1","lat":41.548341,"lon":44.990961,"vehicleMode":"BUS"},"patternSuffixes":["1:01"]},{"stop":{"id":"1:348","code":"126","name":"Tbilisi Str. #9","lat":41.548682,"lon":44.987827,"vehicleMode":"BUS"},"patternSuffixes":["1:01"]},{"stop":{"id":"1:354","code":"128","name":"Tbilisi Str. #25","lat":41.550292,"lon":44.983419,"vehicleMode":"BUS"},"patternSuffixes":["1:01"]},{"stop":{"id":"1:357","code":"129","name":"Tbilisi Str. #35","lat":41.551452,"lon":44.980217,"vehicleMode":"BUS"},"patternSuffixes":["1:01"]},{"stop":{"id":"1:360","code":"130","name":"Paliashvili Str. (Church)","lat":41.55214,"lon":44.978334,"vehicleMode":"BUS"},"patternSuffixes":["1:01"]},{"stop":{"id":"1:3594","code":"250","name":"Lomouri Str. (Clinic \"Rustavi\")","lat":41.559317,"lon":44.969483,"vehicleMode":"BUS"},"patternSuffixes":["1:01"]},{"stop":{"id":"1:372","code":"134","name":"Hotel","lat":41.562143,"lon":44.97751,"vehicleMode":"BUS"},"patternSuffixes":["1:01"]},{"stop":{"id":"1:64","code":"19","name":"Zh. Shartava Ave. N7","lat":41.564645,"lon":44.976194,"vehicleMode":"BUS"},"patternSuffixes":["1:01"]},{"stop":{"id":"1:67","code":"20","name":"Zh. Shartava Avenue #15","lat":41.565753,"lon":44.973673,"vehicleMode":"BUS"},"patternSuffixes":["1:01"]},{"stop":{"id":"1:70","code":"21","name":"Zh. Shartava Avenue #21","lat":41.567533,"lon":44.969223,"vehicleMode":"BUS"},"patternSuffixes":["1:01"]},{"stop":{"id":"1:375","code":"135","name":"20th Microdistrict near School #25","lat":41.57025,"lon":44.970275,"vehicleMode":"BUS"},"patternSuffixes":["1:01"]},{"stop":{"id":"1:243","code":"104","name":"Modebadze Str. #1(near the 17th Square)","lat":41.572028,"lon":44.977015,"vehicleMode":"BUS"},"patternSuffixes":["1:01"]},{"stop":{"id":"1:644","code":"79","name":"17th Microdistrict #28","lat":41.57488,"lon":44.979212,"vehicleMode":"BUS"},"patternSuffixes":["1:01"]},{"stop":{"id":"1:9378","code":"508","name":"19th  microdistrict #12","lat":41.578359,"lon":44.981749,"vehicleMode":"BUS"},"patternSuffixes":["1:01"]},{"stop":{"id":"1:9379","code":"510","name":"19th  microdistrict #9","lat":41.57924,"lon":44.985317,"vehicleMode":"BUS"},"patternSuffixes":["1:01"]},{"stop":{"id":"1:9382","code":"511","name":"19th  microdistrict (school #10)","lat":41.575687,"lon":44.985352,"vehicleMode":"BUS"},"patternSuffixes":["1:01"]},{"stop":{"id":"1:258","code":"107","name":"16th Microdistrict #9","lat":41.573286,"lon":44.986109,"vehicleMode":"BUS"},"patternSuffixes":["1:01"]},{"stop":{"id":"1:390","code":"138","name":"Aghmashenebeli Avenue (opposite rugby field)","lat":41.570422,"lon":44.992911,"vehicleMode":"BUS"},"patternSuffixes":["1:01"]},{"stop":{"id":"1:20585","code":"575","name":"სანაპიროს ქუჩა მე 11 ე მკ/რნ-ს მიმდებარედ","lat":41.566056,"lon":44.997032,"vehicleMode":"BUS"},"patternSuffixes":["1:01"]},{"stop":{"id":"1:396","code":"139","name":"11th Microdistrict #3","lat":41.564797,"lon":44.995982,"vehicleMode":"BUS"},"patternSuffixes":["1:01"]},{"stop":{"id":"1:399","code":"140","name":"Pushkini Str. (Swimming pool)","lat":41.56604,"lon":44.991865,"vehicleMode":"BUS"},"patternSuffixes":["1:01"]},{"stop":{"id":"1:28048","code":"580","name":"მე12 მკ/რ #8","lat":41.567292,"lon":44.987412,"vehicleMode":"BUS"},"patternSuffixes":["1:01"]},{"stop":{"id":"1:469","code":"192","name":"Opposite Leonidze Str. #12","lat":41.567615,"lon":44.983952,"vehicleMode":"BUS"},"patternSuffixes":["1:01"]},{"stop":{"id":"1:411","code":"141","name":"Opposite Leonidze Str. #22","lat":41.569232,"lon":44.979979,"vehicleMode":"BUS"},"patternSuffixes":["1:01"]},{"stop":{"id":"1:417","code":"142","name":"Opposite Leonidze Str. #30","lat":41.570027,"lon":44.978095,"vehicleMode":"BUS"},"patternSuffixes":["1:01"]},{"stop":{"id":"1:420","code":"143","name":"Leonidze Street, the beginning of the auto repair shops","lat":41.570974,"lon":44.975889,"vehicleMode":"BUS"},"patternSuffixes":["1:01"]},{"stop":{"id":"1:426","code":"144","name":"20th Microdistrict Opposite to School #25","lat":41.570037,"lon":44.969863,"vehicleMode":"BUS"},"patternSuffixes":["1:01"]},{"stop":{"id":"1:240","code":"76","name":"Shartava Avenue #8","lat":41.567036,"lon":44.969573,"vehicleMode":"BUS"},"patternSuffixes":["1:01"]},{"stop":{"id":"1:433","code":"146","name":"Shartava Avenue #4a","lat":41.565646,"lon":44.972885,"vehicleMode":"BUS"},"patternSuffixes":["1:01"]},{"stop":{"id":"1:439","code":"147","name":"Shartava Avenue #2","lat":41.564371,"lon":44.976039,"vehicleMode":"BUS"},"patternSuffixes":["1:01"]},{"stop":{"id":"1:249","code":"77","name":"შარტავას გამზირი (რუსთაველის მოედანი)","lat":41.562696,"lon":44.978159,"vehicleMode":"BUS"},"patternSuffixes":["1:01"]},{"stop":{"id":"1:2932","code":"237","name":"Intersection of Tbilisi and Paliashvili streets","lat":41.552471,"lon":44.976277,"vehicleMode":"BUS"},"patternSuffixes":["1:01"]},{"stop":{"id":"1:454","code":"150","name":"Tbilisi Str. intersection of Goginashvili","lat":41.551513,"lon":44.978752,"vehicleMode":"BUS"},"patternSuffixes":["1:01"]},{"stop":{"id":"1:457","code":"151","name":"Tbilisi Str. #26","lat":41.549521,"lon":44.984334,"vehicleMode":"BUS"},"patternSuffixes":["1:01"]},{"stop":{"id":"1:460","code":"152","name":"Tbilisi Str. #10","lat":41.548297,"lon":44.987678,"vehicleMode":"BUS"},"patternSuffixes":["1:01"]},{"stop":{"id":"1:28053","code":"581","name":"ცურტაველის ქუჩა #1 (მოპირდაპირედ)","lat":41.547849,"lon":44.991259,"vehicleMode":"BUS"},"patternSuffixes":["1:01"]},{"stop":{"id":"1:116","code":"37","name":"Kostava Ave. N1","lat":41.545643,"lon":45.004474,"vehicleMode":"BUS"},"patternSuffixes":["1:01"]},{"stop":{"id":"1:119","code":"38","name":"Kostava Ave. N17","lat":41.543709,"lon":45.009711,"vehicleMode":"BUS"},"patternSuffixes":["1:01"]},{"stop":{"id":"1:466","code":"153","name":"Kostava Str. #23","lat":41.54253,"lon":45.012881,"vehicleMode":"BUS"},"patternSuffixes":["1:01"]},{"stop":{"id":"1:309","code":"80","name":"Kostava Ave. N33","lat":41.541146,"lon":45.01647,"vehicleMode":"BUS"},"patternSuffixes":["1:01"]}]},"1:R1681":{"id":"1:R1681","shortName":"6","color":"11518A","mode":"BUS","patterns":[{"patternSuffix":"1:01","directionId":1,"firstStop":{"id":"1:1569","name":"Railway Station"},"lastStop":{"id":"1:1569","name":"Railway Station"},"headsign":"Coast - 11th Microdistrict - Aghmashenebeli - Shartava - Leonidze - 12th Microdistrict - Pirosmani - Gagarini"}],"defaultPatternSuffix":"1:01","_stopsOfPatterns":[{"stop":{"id":"1:1569","code":"219","name":"Railway Station","lat":41.555916,"lon":45.019168,"vehicleMode":"BUS"},"patternSuffixes":["1:01"]},{"stop":{"id":"1:168","code":"56","name":"Rustaveli Str. N50","lat":41.554842,"lon":45.018199,"vehicleMode":"BUS"},"patternSuffixes":["1:01"]},{"stop":{"id":"1:171","code":"57","name":"Rustaveli Str. N44","lat":41.553694,"lon":45.017394,"vehicleMode":"BUS"},"patternSuffixes":["1:01"]},{"stop":{"id":"1:174","code":"58","name":"Rustaveli Street (Chemist's House)","lat":41.550287,"lon":45.015203,"vehicleMode":"BUS"},"patternSuffixes":["1:01"]},{"stop":{"id":"1:177","code":"59","name":"Rustaveli Str. (Batumi Square)","lat":41.546782,"lon":45.012915,"vehicleMode":"BUS"},"patternSuffixes":["1:01"]},{"stop":{"id":"1:279","code":"114","name":"Rustaveli Str.(Opposite to the music school)","lat":41.544931,"lon":45.011725,"vehicleMode":"BUS"},"patternSuffixes":["1:01"]},{"stop":{"id":"1:122","code":"39","name":"Pirosmani Str. Opposite to theater","lat":41.541267,"lon":45.009921,"vehicleMode":"BUS"},"patternSuffixes":["1:01"]},{"stop":{"id":"1:1523","code":"218","name":"Pirosmani Str. (Polyclinic #1) Opposite","lat":41.539365,"lon":45.01098,"vehicleMode":"BUS"},"patternSuffixes":["1:01"]},{"stop":{"id":"1:128","code":"41","name":"Pirosmani Str. N19","lat":41.537623,"lon":45.012691,"vehicleMode":"BUS"},"patternSuffixes":["1:01"]},{"stop":{"id":"1:2926","code":"235","name":"Pirosmani Str. #31","lat":41.534888,"lon":45.015234,"vehicleMode":"BUS"},"patternSuffixes":["1:01"]},{"stop":{"id":"1:2925","code":"234","name":"Mshenebelta Str. former (Ven Dispensary)","lat":41.532321,"lon":45.01508,"vehicleMode":"BUS"},"patternSuffixes":["1:01"]},{"stop":{"id":"1:7439","code":"307","name":"Mshenebelta Str - Bostan kalaki Str. Intersection","lat":41.535969,"lon":45.011574,"vehicleMode":"BUS"},"patternSuffixes":["1:01"]},{"stop":{"id":"1:7442","code":"308","name":"Mshenebelta Str. (opposite to Museum of Local History)","lat":41.538638,"lon":45.008966,"vehicleMode":"BUS"},"patternSuffixes":["1:01"]},{"stop":{"id":"1:7445","code":"309","name":"Mshenebelta Str. (opposite to Rustavi Steel Stadium)","lat":41.54109,"lon":45.007833,"vehicleMode":"BUS"},"patternSuffixes":["1:01"]},{"stop":{"id":"1:7448","code":"310","name":"Mshenebelta Str (School #2)","lat":41.543511,"lon":45.006175,"vehicleMode":"BUS"},"patternSuffixes":["1:01"]},{"stop":{"id":"1:7451","code":"311","name":"Mshenebelta Str (Kostava #1)","lat":41.544697,"lon":45.004607,"vehicleMode":"BUS"},"patternSuffixes":["1:01"]},{"stop":{"id":"1:2971","code":"290","name":"Opposite to Tavgorashvili Str. #8","lat":41.552163,"lon":44.992039,"vehicleMode":"BUS"},"patternSuffixes":["1:01"]},{"stop":{"id":"1:2583","code":"230","name":"Tavgorashvili Str. near School #26","lat":41.555234,"lon":44.991192,"vehicleMode":"BUS"},"patternSuffixes":["1:01"]},{"stop":{"id":"1:28038","code":"578","name":"სანაპიროს ქუჩა 39","lat":41.560819,"lon":44.993369,"vehicleMode":"BUS"},"patternSuffixes":["1:01"]},{"stop":{"id":"1:2976","code":"291","name":"Embankement Str (opposite 11th District #1)","lat":41.564735,"lon":44.996371,"vehicleMode":"BUS"},"patternSuffixes":["1:01"]},{"stop":{"id":"1:213","code":"68","name":"12th Microdistrict(Rugby field)","lat":41.570554,"lon":44.993028,"vehicleMode":"BUS"},"patternSuffixes":["1:01"]},{"stop":{"id":"1:216","code":"69","name":"Agmashenebeli Avenue, 18th block, entrance","lat":41.573459,"lon":44.985977,"vehicleMode":"BUS"},"patternSuffixes":["1:01"]},{"stop":{"id":"1:9364","code":"504","name":"18-19th Microdistrict Square","lat":41.575654,"lon":44.986515,"vehicleMode":"BUS"},"patternSuffixes":["1:01"]},{"stop":{"id":"1:9367","code":"505","name":"19th  microdistrict (opposite to school #10)","lat":41.576674,"lon":44.986,"vehicleMode":"BUS"},"patternSuffixes":["1:01"]},{"stop":{"id":"1:9370","code":"506","name":"19th  microdistrict, opposite to #9","lat":41.579249,"lon":44.985687,"vehicleMode":"BUS"},"patternSuffixes":["1:01"]},{"stop":{"id":"1:9375","code":"507","name":"19th  microdistrict, opposite to #12","lat":41.57807,"lon":44.981393,"vehicleMode":"BUS"},"patternSuffixes":["1:01"]},{"stop":{"id":"1:225","code":"71","name":"17th Microdistrict, Opposite Building #15","lat":41.574883,"lon":44.979045,"vehicleMode":"BUS"},"patternSuffixes":["1:01"]},{"stop":{"id":"1:339","code":"91","name":"Opposite to building 1, 17th microdistrict","lat":41.57198,"lon":44.976769,"vehicleMode":"BUS"},"patternSuffixes":["1:01"]},{"stop":{"id":"1:1503","code":"217","name":"Tashkenti Str.Opposite to building #17","lat":41.568328,"lon":44.974073,"vehicleMode":"BUS"},"patternSuffixes":["1:01"]},{"stop":{"id":"1:70","code":"21","name":"Zh. Shartava Avenue #21","lat":41.567533,"lon":44.969223,"vehicleMode":"BUS"},"patternSuffixes":["1:01"]},{"stop":{"id":"1:73","code":"22","name":"Zh. Shartava Avenue #25","lat":41.569296,"lon":44.964999,"vehicleMode":"BUS"},"patternSuffixes":["1:01"]},{"stop":{"id":"1:237","code":"75","name":"Zh. Shartava Ave. N14","lat":41.56905,"lon":44.964746,"vehicleMode":"BUS"},"patternSuffixes":["1:01"]},{"stop":{"id":"1:240","code":"76","name":"Shartava Avenue #8","lat":41.567036,"lon":44.969573,"vehicleMode":"BUS"},"patternSuffixes":["1:01"]},{"stop":{"id":"1:1443","code":"214","name":"Tashkenti Str.#7","lat":41.567683,"lon":44.973989,"vehicleMode":"BUS"},"patternSuffixes":["1:01"]},{"stop":{"id":"1:12610","code":"550","name":"15th microdistrict Tashkenti Str. #16","lat":41.570176,"lon":44.975721,"vehicleMode":"BUS"},"patternSuffixes":["1:01"]},{"stop":{"id":"1:88","code":"27","name":"Leonidze Str.#26","lat":41.569622,"lon":44.978709,"vehicleMode":"BUS"},"patternSuffixes":["1:01"]},{"stop":{"id":"1:91","code":"28","name":"Leonidze Str.#22","lat":41.56872,"lon":44.98089,"vehicleMode":"BUS"},"patternSuffixes":["1:01"]},{"stop":{"id":"1:94","code":"29","name":"Leonidze Str.#12","lat":41.567206,"lon":44.984524,"vehicleMode":"BUS"},"patternSuffixes":["1:01"]},{"stop":{"id":"1:97","code":"30","name":"Meskhishvili Str. (in front of \"Spar\" store) – Monitor","lat":41.564804,"lon":44.983837,"vehicleMode":"BUS"},"patternSuffixes":["1:01"]},{"stop":{"id":"1:195","code":"65","name":"Todria Str. (Circle)","lat":41.564993,"lon":44.984226,"vehicleMode":"BUS"},"patternSuffixes":["1:01"]},{"stop":{"id":"1:201","code":"66","name":"16th Microdistrict #6","lat":41.56807,"lon":44.986498,"vehicleMode":"BUS"},"patternSuffixes":["1:01"]},{"stop":{"id":"1:204","code":"67","name":"12th Microdistrict building #3","lat":41.570052,"lon":44.987905,"vehicleMode":"BUS"},"patternSuffixes":["1:01"]},{"stop":{"id":"1:390","code":"138","name":"Aghmashenebeli Avenue (opposite rugby field)","lat":41.570422,"lon":44.992911,"vehicleMode":"BUS"},"patternSuffixes":["1:01"]},{"stop":{"id":"1:20585","code":"575","name":"სანაპიროს ქუჩა მე 11 ე მკ/რნ-ს მიმდებარედ","lat":41.566056,"lon":44.997032,"vehicleMode":"BUS"},"patternSuffixes":["1:01"]},{"stop":{"id":"1:396","code":"139","name":"11th Microdistrict #3","lat":41.564797,"lon":44.995982,"vehicleMode":"BUS"},"patternSuffixes":["1:01"]},{"stop":{"id":"1:28041","code":"579","name":"სანაპიროს ქუჩა #47","lat":41.561347,"lon":44.993609,"vehicleMode":"BUS"},"patternSuffixes":["1:01"]},{"stop":{"id":"1:2580","code":"229","name":"Tavgorashvili Str. Opposite to School #26","lat":41.555069,"lon":44.991037,"vehicleMode":"BUS"},"patternSuffixes":["1:01"]},{"stop":{"id":"1:2966","code":"289","name":"Tavgorashvili Str. #8","lat":41.552029,"lon":44.991978,"vehicleMode":"BUS"},"patternSuffixes":["1:01"]},{"stop":{"id":"1:113","code":"36","name":"People's Friendship Avenue (Heroes Square)","lat":41.549886,"lon":44.991716,"vehicleMode":"BUS"},"patternSuffixes":["1:01"]},{"stop":{"id":"1:7424","code":"302","name":"Mshenebelta Str. (Rustavi Central Park)","lat":41.54536,"lon":45.00305,"vehicleMode":"BUS"},"patternSuffixes":["1:01"]},{"stop":{"id":"1:7427","code":"303","name":"Mshenebelta Str. Opposite to School #2","lat":41.543342,"lon":45.006031,"vehicleMode":"BUS"},"patternSuffixes":["1:01"]},{"stop":{"id":"1:7430","code":"304","name":"Mshenebelta Str. (Rustavi Steel Stadium)","lat":41.540484,"lon":45.007706,"vehicleMode":"BUS"},"patternSuffixes":["1:01"]},{"stop":{"id":"1:7433","code":"305","name":"Mshenebelta Str. (Museum of Local History)","lat":41.538435,"lon":45.008995,"vehicleMode":"BUS"},"patternSuffixes":["1:01"]},{"stop":{"id":"1:7436","code":"306","name":"Mshenebelta Str - Bostan kalaki Str. Intersection","lat":41.535912,"lon":45.011401,"vehicleMode":"BUS"},"patternSuffixes":["1:01"]},{"stop":{"id":"1:137","code":"44","name":"Builders Street (former Commissariat)","lat":41.532366,"lon":45.014863,"vehicleMode":"BUS"},"patternSuffixes":["1:01"]},{"stop":{"id":"1:303","code":"121","name":"Gagarin Street (Sewing Shop)","lat":41.534263,"lon":45.017318,"vehicleMode":"BUS"},"patternSuffixes":["1:01"]},{"stop":{"id":"1:198","code":"100","name":"Gagarini Str. #12 (Metallurgical Plant)","lat":41.539616,"lon":45.021242,"vehicleMode":"BUS"},"patternSuffixes":["1:01"]},{"stop":{"id":"1:207","code":"101","name":"Kostava Street #34","lat":41.54143,"lon":45.016624,"vehicleMode":"BUS"},"patternSuffixes":["1:01"]},{"stop":{"id":"1:210","code":"102","name":"Kostava Str. #22","lat":41.542729,"lon":45.012958,"vehicleMode":"BUS"},"patternSuffixes":["1:01"]},{"stop":{"id":"1:445","code":"190","name":"Rustaveli Str.(On the side of the music school)","lat":41.544919,"lon":45.011909,"vehicleMode":"BUS"},"patternSuffixes":["1:01"]},{"stop":{"id":"1:765","code":"189","name":"Rustaveli Str. (opposite to Batumi square)","lat":41.546731,"lon":45.013154,"vehicleMode":"BUS"},"patternSuffixes":["1:01"]},{"stop":{"id":"1:668","code":"95","name":"Rustaveli Street (Chemist's House)","lat":41.550162,"lon":45.015327,"vehicleMode":"BUS"},"patternSuffixes":["1:01"]},{"stop":{"id":"1:282","code":"115","name":"Rustaveli Str. #31","lat":41.553189,"lon":45.017263,"vehicleMode":"BUS"},"patternSuffixes":["1:01"]}]},"1:R769":{"id":"1:R769","shortName":"7","color":"11518A","mode":"BUS","patterns":[{"patternSuffix":"1:01","directionId":1,"firstStop":{"id":"1:612","name":"Rcheulishvili Str. #10a"},"lastStop":{"id":"1:612","name":"Rcheulishvili Str. #10a"},"headsign":"Rcheulishvili-Batumi Str.-Megobroba-Meskhishvili-Leonidze"}],"defaultPatternSuffix":"1:01","_stopsOfPatterns":[{"stop":{"id":"1:612","code":"178","name":"Rcheulishvili Str. #10a","lat":41.561389,"lon":45.024166,"vehicleMode":"BUS"},"patternSuffixes":["1:01"]},{"stop":{"id":"1:381","code":"179","name":"Rcheulishvili Str. #8","lat":41.562115,"lon":45.02235,"vehicleMode":"BUS"},"patternSuffixes":["1:01"]},{"stop":{"id":"1:387","code":"180","name":"Rcheulishvili Str. #4","lat":41.562942,"lon":45.020196,"vehicleMode":"BUS"},"patternSuffixes":["1:01"]},{"stop":{"id":"1:393","code":"181","name":"Giorgadze Str. #4","lat":41.561755,"lon":45.01806,"vehicleMode":"BUS"},"patternSuffixes":["1:01"]},{"stop":{"id":"1:402","code":"182","name":"Giorgadze Str. #22","lat":41.559677,"lon":45.020084,"vehicleMode":"BUS"},"patternSuffixes":["1:01"]},{"stop":{"id":"1:405","code":"183","name":"Giorgadze Str. #34","lat":41.557356,"lon":45.022348,"vehicleMode":"BUS"},"patternSuffixes":["1:01"]},{"stop":{"id":"1:481","code":"196","name":"Samgori Str. (intresection of Graneli Str.)","lat":41.557825,"lon":45.02712,"vehicleMode":"BUS"},"patternSuffixes":["1:01"]},{"stop":{"id":"1:478","code":"195","name":"Samgori Str. (intresection of Rcheulishvili Str.)","lat":41.559632,"lon":45.028335,"vehicleMode":"BUS"},"patternSuffixes":["1:01"]},{"stop":{"id":"1:484","code":"197","name":"Samgori Str. (intresection of Tolstoi Str.)","lat":41.561494,"lon":45.02964,"vehicleMode":"BUS"},"patternSuffixes":["1:01"]},{"stop":{"id":"1:487","code":"198","name":"Mazniashvili Str. (Steel Construction Factory)","lat":41.562771,"lon":45.031643,"vehicleMode":"BUS"},"patternSuffixes":["1:01"]},{"stop":{"id":"1:512","code":"208","name":"Mazniashvili Street","lat":41.560195,"lon":45.034329,"vehicleMode":"BUS"},"patternSuffixes":["1:01"]},{"stop":{"id":"1:615","code":"200","name":"Mazniashvili Str. (intresection of Beliashvili Str.)","lat":41.557123,"lon":45.036301,"vehicleMode":"BUS"},"patternSuffixes":["1:01"]},{"stop":{"id":"1:493","code":"201","name":"Zedgenidze Str. (intresection of Mazniashvili Str.)","lat":41.555314,"lon":45.036551,"vehicleMode":"BUS"},"patternSuffixes":["1:01"]},{"stop":{"id":"1:499","code":"203","name":"The beginning of Javakhishvili Street","lat":41.550277,"lon":45.029363,"vehicleMode":"BUS"},"patternSuffixes":["1:01"]},{"stop":{"id":"1:291","code":"118","name":"Gagarini Str. (Restaurant Shankhai)","lat":41.546114,"lon":45.0249,"vehicleMode":"BUS"},"patternSuffixes":["1:01"]},{"stop":{"id":"1:430","code":"187","name":"Gagarini Str. (former technical school)","lat":41.544311,"lon":45.02372,"vehicleMode":"BUS"},"patternSuffixes":["1:01"]},{"stop":{"id":"1:436","code":"188","name":"Batumi Str. (Old Bazaar)","lat":41.545355,"lon":45.017968,"vehicleMode":"BUS"},"patternSuffixes":["1:01"]},{"stop":{"id":"1:177","code":"59","name":"Rustaveli Str. (Batumi Square)","lat":41.546782,"lon":45.012915,"vehicleMode":"BUS"},"patternSuffixes":["1:01"]},{"stop":{"id":"1:279","code":"114","name":"Rustaveli Str.(Opposite to the music school)","lat":41.544931,"lon":45.011725,"vehicleMode":"BUS"},"patternSuffixes":["1:01"]},{"stop":{"id":"1:20579","code":"574","name":"კოსტავას გამზირი #18","lat":41.543578,"lon":45.01053,"vehicleMode":"BUS"},"patternSuffixes":["1:01"]},{"stop":{"id":"1:43","code":"12","name":"Kostava Ave. N12","lat":41.544652,"lon":45.007646,"vehicleMode":"BUS"},"patternSuffixes":["1:01"]},{"stop":{"id":"1:46","code":"13","name":"Kostava Ave. N23","lat":41.545831,"lon":45.00441,"vehicleMode":"BUS"},"patternSuffixes":["1:01"]},{"stop":{"id":"1:49","code":"14","name":"Khalkhta Megobroba Avenue","lat":41.550605,"lon":44.992673,"vehicleMode":"BUS"},"patternSuffixes":["1:01"]},{"stop":{"id":"1:52","code":"15","name":"People's Friendship Avenue #5","lat":41.55177,"lon":44.988299,"vehicleMode":"BUS"},"patternSuffixes":["1:01"]},{"stop":{"id":"1:544","code":"52","name":"Khalkhta Megobroba Str. N9 (Post Office)","lat":41.552529,"lon":44.986488,"vehicleMode":"BUS"},"patternSuffixes":["1:01"]},{"stop":{"id":"1:55","code":"16","name":"People's Friendship Avenue (House of Justice)","lat":41.555869,"lon":44.98328,"vehicleMode":"BUS"},"patternSuffixes":["1:01"]},{"stop":{"id":"1:58","code":"17","name":"People's Friendship Avenue #41","lat":41.5591,"lon":44.981144,"vehicleMode":"BUS"},"patternSuffixes":["1:01"]},{"stop":{"id":"1:61","code":"18","name":"People's Friendship Avenue (Polocninic #2)","lat":41.562368,"lon":44.979173,"vehicleMode":"BUS"},"patternSuffixes":["1:01"]},{"stop":{"id":"1:463","code":"191","name":"Meskhishvili Str. #9","lat":41.563853,"lon":44.98223,"vehicleMode":"BUS"},"patternSuffixes":["1:01"]},{"stop":{"id":"1:195","code":"65","name":"Todria Str. (Circle)","lat":41.564993,"lon":44.984226,"vehicleMode":"BUS"},"patternSuffixes":["1:01"]},{"stop":{"id":"1:17850","code":"4600","name":"მესხიშვილის წრე","lat":41.567001,"lon":44.985588,"vehicleMode":"BUS"},"patternSuffixes":["1:01"]},{"stop":{"id":"1:469","code":"192","name":"Opposite Leonidze Str. #12","lat":41.567615,"lon":44.983952,"vehicleMode":"BUS"},"patternSuffixes":["1:01"]},{"stop":{"id":"1:411","code":"141","name":"Opposite Leonidze Str. #22","lat":41.569232,"lon":44.979979,"vehicleMode":"BUS"},"patternSuffixes":["1:01"]},{"stop":{"id":"1:417","code":"142","name":"Opposite Leonidze Str. #30","lat":41.570027,"lon":44.978095,"vehicleMode":"BUS"},"patternSuffixes":["1:01"]},{"stop":{"id":"1:420","code":"143","name":"Leonidze Street, the beginning of the auto repair shops","lat":41.570974,"lon":44.975889,"vehicleMode":"BUS"},"patternSuffixes":["1:01"]},{"stop":{"id":"1:12617","code":"551","name":"21st  microdistrict opposite to #12","lat":41.572814,"lon":44.971394,"vehicleMode":"BUS"},"patternSuffixes":["1:01"]},{"stop":{"id":"1:231","code":"73","name":"21st Microdistrict, opposite building #1","lat":41.573715,"lon":44.969214,"vehicleMode":"BUS"},"patternSuffixes":["1:01"]},{"stop":{"id":"1:234","code":"74","name":"Kutaisi Str. Opposite to N22 School","lat":41.571811,"lon":44.965682,"vehicleMode":"BUS"},"patternSuffixes":["1:01"]},{"stop":{"id":"1:237","code":"75","name":"Zh. Shartava Ave. N14","lat":41.56905,"lon":44.964746,"vehicleMode":"BUS"},"patternSuffixes":["1:01"]},{"stop":{"id":"1:240","code":"76","name":"Shartava Avenue #8","lat":41.567036,"lon":44.969573,"vehicleMode":"BUS"},"patternSuffixes":["1:01"]},{"stop":{"id":"1:433","code":"146","name":"Shartava Avenue #4a","lat":41.565646,"lon":44.972885,"vehicleMode":"BUS"},"patternSuffixes":["1:01"]},{"stop":{"id":"1:439","code":"147","name":"Shartava Avenue #2","lat":41.564371,"lon":44.976039,"vehicleMode":"BUS"},"patternSuffixes":["1:01"]},{"stop":{"id":"1:249","code":"77","name":"შარტავას გამზირი (რუსთაველის მოედანი)","lat":41.562696,"lon":44.978159,"vehicleMode":"BUS"},"patternSuffixes":["1:01"]},{"stop":{"id":"1:4212","code":"295","name":"People's Friendship Avenue (nearby hotel Rustavi)","lat":41.561571,"lon":44.979049,"vehicleMode":"BUS"},"patternSuffixes":["1:01"]},{"stop":{"id":"1:255","code":"78","name":"Khalkhta Megobroba Ave. N26","lat":41.558692,"lon":44.981024,"vehicleMode":"BUS"},"patternSuffixes":["1:01"]},{"stop":{"id":"1:276","code":"113","name":"People's Friendship Avenue (archive)","lat":41.555641,"lon":44.983029,"vehicleMode":"BUS"},"patternSuffixes":["1:01"]},{"stop":{"id":"1:109","code":"34","name":"People's Friendship Avenue #14","lat":41.55374,"lon":44.984489,"vehicleMode":"BUS"},"patternSuffixes":["1:01"]},{"stop":{"id":"1:603","code":"92","name":"Khalkhta Megobroba Ave. N6","lat":41.55144,"lon":44.988717,"vehicleMode":"BUS"},"patternSuffixes":["1:01"]},{"stop":{"id":"1:113","code":"36","name":"People's Friendship Avenue (Heroes Square)","lat":41.549886,"lon":44.991716,"vehicleMode":"BUS"},"patternSuffixes":["1:01"]},{"stop":{"id":"1:116","code":"37","name":"Kostava Ave. N1","lat":41.545643,"lon":45.004474,"vehicleMode":"BUS"},"patternSuffixes":["1:01"]},{"stop":{"id":"1:119","code":"38","name":"Kostava Ave. N17","lat":41.543709,"lon":45.009711,"vehicleMode":"BUS"},"patternSuffixes":["1:01"]},{"stop":{"id":"1:472","code":"193","name":"Intersection of Chavchavadze and Batumi streets","lat":41.545449,"lon":45.013576,"vehicleMode":"BUS"},"patternSuffixes":["1:01"]},{"stop":{"id":"1:475","code":"194","name":"Batumi Str. Opposite to old bazaar","lat":41.544673,"lon":45.017643,"vehicleMode":"BUS"},"patternSuffixes":["1:01"]},{"stop":{"id":"1:294","code":"119","name":"Gagarini Str. (former technical school)","lat":41.544258,"lon":45.023811,"vehicleMode":"BUS"},"patternSuffixes":["1:01"]},{"stop":{"id":"1:502","code":"204","name":"Opposite to the beginning of Javakhishvili Str.","lat":41.550197,"lon":45.029482,"vehicleMode":"BUS"},"patternSuffixes":["1:01"]},{"stop":{"id":"1:508","code":"206","name":"Opposite to Zedgenidze Str. (intresection of Mazniashvili)","lat":41.555307,"lon":45.036693,"vehicleMode":"BUS"},"patternSuffixes":["1:01"]},{"stop":{"id":"1:490","code":"199","name":"Opposite to Mazniashvili Str.","lat":41.560274,"lon":45.03448,"vehicleMode":"BUS"},"patternSuffixes":["1:01"]},{"stop":{"id":"1:517","code":"209","name":"Opposite to Mazniashvili Str. (Steel Construction Factory)","lat":41.562701,"lon":45.031942,"vehicleMode":"BUS"},"patternSuffixes":["1:01"]}]},"1:R2367":{"id":"1:R2367","shortName":"8","color":"11518A","mode":"BUS","patterns":[{"patternSuffix":"1:01","directionId":1,"firstStop":{"id":"1:2243","name":"Depot"},"lastStop":{"id":"1:2243","name":"Depot"},"headsign":"Auto Fair - Kutaisi Square"}],"defaultPatternSuffix":"1:01","_stopsOfPatterns":[{"stop":{"id":"1:2243","code":"220","name":"Depot","lat":41.564248,"lon":44.955516,"vehicleMode":"BUS"},"patternSuffixes":["1:01"]},{"stop":{"id":"1:237","code":"75","name":"Zh. Shartava Ave. N14","lat":41.56905,"lon":44.964746,"vehicleMode":"BUS"},"patternSuffixes":["1:01"]},{"stop":{"id":"1:240","code":"76","name":"Shartava Avenue #8","lat":41.567036,"lon":44.969573,"vehicleMode":"BUS"},"patternSuffixes":["1:01"]},{"stop":{"id":"1:433","code":"146","name":"Shartava Avenue #4a","lat":41.565646,"lon":44.972885,"vehicleMode":"BUS"},"patternSuffixes":["1:01"]},{"stop":{"id":"1:439","code":"147","name":"Shartava Avenue #2","lat":41.564371,"lon":44.976039,"vehicleMode":"BUS"},"patternSuffixes":["1:01"]},{"stop":{"id":"1:249","code":"77","name":"შარტავას გამზირი (რუსთაველის მოედანი)","lat":41.562696,"lon":44.978159,"vehicleMode":"BUS"},"patternSuffixes":["1:01"]},{"stop":{"id":"1:64","code":"19","name":"Zh. Shartava Ave. N7","lat":41.564645,"lon":44.976194,"vehicleMode":"BUS"},"patternSuffixes":["1:01"]},{"stop":{"id":"1:67","code":"20","name":"Zh. Shartava Avenue #15","lat":41.565753,"lon":44.973673,"vehicleMode":"BUS"},"patternSuffixes":["1:01"]},{"stop":{"id":"1:70","code":"21","name":"Zh. Shartava Avenue #21","lat":41.567533,"lon":44.969223,"vehicleMode":"BUS"},"patternSuffixes":["1:01"]},{"stop":{"id":"1:73","code":"22","name":"Zh. Shartava Avenue #25","lat":41.569296,"lon":44.964999,"vehicleMode":"BUS"},"patternSuffixes":["1:01"]}]},"1:R2401":{"id":"1:R2401","shortName":"20","color":"11518A","mode":"BUS","patterns":[{"patternSuffix":"1:01","directionId":1,"firstStop":{"id":"1:73","name":"Zh. Shartava Avenue #25"},"lastStop":{"id":"1:17032","name":"მ/ს \"ისანი\""},"headsign":"რუსთავი-თბილისი(ისანი)"},{"patternSuffix":"0:01","directionId":0,"firstStop":{"id":"1:17032","name":"მ/ს \"ისანი\""},"lastStop":{"id":"1:73","name":"Zh. Shartava Avenue #25"},"headsign":"Tbilisi - Rustavi"}],"defaultPatternSuffix":"1:01","_stopsOfPatterns":[{"stop":{"id":"1:73","code":"22","name":"Zh. Shartava Avenue #25","lat":41.569296,"lon":44.964999,"vehicleMode":"BUS"},"patternSuffixes":["0:01","1:01"]},{"stop":{"id":"1:16670","code":"4016","name":"ფონიჭალის ნაკრძალი","lat":41.628816,"lon":44.922903,"vehicleMode":"BUS"},"patternSuffixes":["1:01"]},{"stop":{"id":"1:17120","code":"1676","name":"Kvemo Ponichala Center","lat":41.644779,"lon":44.911761,"vehicleMode":"BUS"},"patternSuffixes":["1:01"]},{"stop":{"id":"1:2327","code":"222","name":"Ponichala","lat":41.653171,"lon":44.904103,"vehicleMode":"BUS"},"patternSuffixes":["1:01"]},{"stop":{"id":"1:17119","code":"1691","name":"რუსთავის გზატკეცილი #22","lat":41.654405,"lon":44.901609,"vehicleMode":"BUS"},"patternSuffixes":["1:01"]},{"stop":{"id":"1:11655","code":"513","name":"Rustavi Highway #20A","lat":41.65575,"lon":44.89914,"vehicleMode":"BUS"},"patternSuffixes":["1:01"]},{"stop":{"id":"1:17032","code":"1489","name":"მ/ს \"ისანი\"","lat":41.685845,"lon":44.840352,"vehicleMode":"BUS"},"patternSuffixes":["0:01","1:01"]},{"stop":{"id":"1:17085","code":"1490","name":"დიმიტრი გულიას ხიდი","lat":41.676041,"lon":44.834371,"vehicleMode":"BUS"},"patternSuffixes":["0:01"]},{"stop":{"id":"1:17010","code":"1668","name":"რუსთავის გზატკეცილი #177","lat":41.654295,"lon":44.901617,"vehicleMode":"BUS"},"patternSuffixes":["0:01"]},{"stop":{"id":"1:17080","code":"1687","name":"Kvemo Ponichala Center","lat":41.644839,"lon":44.911589,"vehicleMode":"BUS"},"patternSuffixes":["0:01"]},{"stop":{"id":"1:17077","code":"4224","name":"ცოტნე დადიანის II ჩიხი","lat":41.628365,"lon":44.921371,"vehicleMode":"BUS"},"patternSuffixes":["0:01"]}]},"1:R11746":{"id":"1:R11746","shortName":"21","color":"11518A","mode":"BUS","patterns":[{"patternSuffix":"1:01","directionId":1,"firstStop":{"id":"1:1569","name":"Railway Station"},"lastStop":{"id":"1:1569","name":"Railway Station"},"headsign":"რუსთავი-თბილისი(სპორტის სასახლე)"}],"defaultPatternSuffix":"1:01","_stopsOfPatterns":[{"stop":{"id":"1:1569","code":"219","name":"Railway Station","lat":41.555916,"lon":45.019168,"vehicleMode":"BUS"},"patternSuffixes":["1:01"]},{"stop":{"id":"1:168","code":"56","name":"Rustaveli Str. N50","lat":41.554842,"lon":45.018199,"vehicleMode":"BUS"},"patternSuffixes":["1:01"]},{"stop":{"id":"1:171","code":"57","name":"Rustaveli Str. N44","lat":41.553694,"lon":45.017394,"vehicleMode":"BUS"},"patternSuffixes":["1:01"]},{"stop":{"id":"1:174","code":"58","name":"Rustaveli Street (Chemist's House)","lat":41.550287,"lon":45.015203,"vehicleMode":"BUS"},"patternSuffixes":["1:01"]},{"stop":{"id":"1:177","code":"59","name":"Rustaveli Str. (Batumi Square)","lat":41.546782,"lon":45.012915,"vehicleMode":"BUS"},"patternSuffixes":["1:01"]},{"stop":{"id":"1:279","code":"114","name":"Rustaveli Str.(Opposite to the music school)","lat":41.544931,"lon":45.011725,"vehicleMode":"BUS"},"patternSuffixes":["1:01"]},{"stop":{"id":"1:20579","code":"574","name":"კოსტავას გამზირი #18","lat":41.543578,"lon":45.01053,"vehicleMode":"BUS"},"patternSuffixes":["1:01"]},{"stop":{"id":"1:43","code":"12","name":"Kostava Ave. N12","lat":41.544652,"lon":45.007646,"vehicleMode":"BUS"},"patternSuffixes":["1:01"]},{"stop":{"id":"1:46","code":"13","name":"Kostava Ave. N23","lat":41.545831,"lon":45.00441,"vehicleMode":"BUS"},"patternSuffixes":["1:01"]},{"stop":{"id":"1:49","code":"14","name":"Khalkhta Megobroba Avenue","lat":41.550605,"lon":44.992673,"vehicleMode":"BUS"},"patternSuffixes":["1:01"]},{"stop":{"id":"1:52","code":"15","name":"People's Friendship Avenue #5","lat":41.55177,"lon":44.988299,"vehicleMode":"BUS"},"patternSuffixes":["1:01"]},{"stop":{"id":"1:544","code":"52","name":"Khalkhta Megobroba Str. N9 (Post Office)","lat":41.552529,"lon":44.986488,"vehicleMode":"BUS"},"patternSuffixes":["1:01"]},{"stop":{"id":"1:55","code":"16","name":"People's Friendship Avenue (House of Justice)","lat":41.555869,"lon":44.98328,"vehicleMode":"BUS"},"patternSuffixes":["1:01"]},{"stop":{"id":"1:58","code":"17","name":"People's Friendship Avenue #41","lat":41.5591,"lon":44.981144,"vehicleMode":"BUS"},"patternSuffixes":["1:01"]},{"stop":{"id":"1:61","code":"18","name":"People's Friendship Avenue (Polocninic #2)","lat":41.562368,"lon":44.979173,"vehicleMode":"BUS"},"patternSuffixes":["1:01"]},{"stop":{"id":"1:64","code":"19","name":"Zh. Shartava Ave. N7","lat":41.564645,"lon":44.976194,"vehicleMode":"BUS"},"patternSuffixes":["1:01"]},{"stop":{"id":"1:67","code":"20","name":"Zh. Shartava Avenue #15","lat":41.565753,"lon":44.973673,"vehicleMode":"BUS"},"patternSuffixes":["1:01"]},{"stop":{"id":"1:70","code":"21","name":"Zh. Shartava Avenue #21","lat":41.567533,"lon":44.969223,"vehicleMode":"BUS"},"patternSuffixes":["1:01"]},{"stop":{"id":"1:73","code":"22","name":"Zh. Shartava Avenue #25","lat":41.569296,"lon":44.964999,"vehicleMode":"BUS"},"patternSuffixes":["1:01"]},{"stop":{"id":"1:16670","code":"4016","name":"ფონიჭალის ნაკრძალი","lat":41.628816,"lon":44.922903,"vehicleMode":"BUS"},"patternSuffixes":["1:01"]},{"stop":{"id":"1:17120","code":"1676","name":"Kvemo Ponichala Center","lat":41.644779,"lon":44.911761,"vehicleMode":"BUS"},"patternSuffixes":["1:01"]},{"stop":{"id":"1:2327","code":"222","name":"Ponichala","lat":41.653171,"lon":44.904103,"vehicleMode":"BUS"},"patternSuffixes":["1:01"]},{"stop":{"id":"1:17119","code":"1691","name":"რუსთავის გზატკეცილი #22","lat":41.654405,"lon":44.901609,"vehicleMode":"BUS"},"patternSuffixes":["1:01"]},{"stop":{"id":"1:11655","code":"513","name":"Rustavi Highway #20A","lat":41.65575,"lon":44.89914,"vehicleMode":"BUS"},"patternSuffixes":["1:01"]},{"stop":{"id":"1:17008","code":"1946","name":"Dimitri Gulia Square","lat":41.675647,"lon":44.828569,"vehicleMode":"BUS"},"patternSuffixes":["1:01"]},{"stop":{"id":"1:17033","code":"1387","name":"ბეჟან კალანდაძის ქუჩა","lat":41.681434,"lon":44.824063,"vehicleMode":"BUS"},"patternSuffixes":["1:01"]},{"stop":{"id":"1:17086","code":"1388","name":"ვახტანგ გორგასლის მოედანი","lat":41.683515,"lon":44.82298,"vehicleMode":"BUS"},"patternSuffixes":["1:01"]},{"stop":{"id":"1:17075","code":"3085","name":"300 არაგველის მემორიალი","lat":41.686398,"lon":44.820147,"vehicleMode":"BUS"},"patternSuffixes":["1:01"]},{"stop":{"id":"1:17125","code":"1390","name":"იბრაჰიმ-ისფაჰანლის ქუჩა","lat":41.687792,"lon":44.818661,"vehicleMode":"BUS"},"patternSuffixes":["1:01"]},{"stop":{"id":"1:17034","code":"3128","name":"ალექსანდრე შიმკევიჩის ქუჩა","lat":41.688453,"lon":44.816674,"vehicleMode":"BUS"},"patternSuffixes":["1:01"]},{"stop":{"id":"1:17076","code":"3486","name":"ძმები სიმენსების ქუჩა","lat":41.688769,"lon":44.814761,"vehicleMode":"BUS"},"patternSuffixes":["1:01"]},{"stop":{"id":"1:17035","code":"1465","name":"Abanotubani","lat":41.688974,"lon":44.812846,"vehicleMode":"BUS"},"patternSuffixes":["1:01"]},{"stop":{"id":"1:17073","code":"1495","name":"ევროპის მოედანი","lat":41.691003,"lon":44.811422,"vehicleMode":"BUS"},"patternSuffixes":["1:01"]},{"stop":{"id":"1:17129","code":"2994","name":"Elene Akhvlediani Ascent","lat":41.697618,"lon":44.809107,"vehicleMode":"BUS"},"patternSuffixes":["1:01"]},{"stop":{"id":"1:17130","code":"3087","name":"სიმონ ჩიქოვანის ქუჩა","lat":41.716309,"lon":44.778782,"vehicleMode":"BUS"},"patternSuffixes":["1:01"]},{"stop":{"id":"1:17029","code":"1009","name":"მ/ს \"ტექნიკური უნივერსიტეტი\"","lat":41.719352,"lon":44.778321,"vehicleMode":"BUS"},"patternSuffixes":["1:01"]},{"stop":{"id":"1:17030","code":"1011","name":"ტექნიკური უნივერსიტეტი III კორპუსი","lat":41.722095,"lon":44.777412,"vehicleMode":"BUS"},"patternSuffixes":["1:01"]},{"stop":{"id":"1:17127","code":"930","name":"სულხან ცინცაძის ქუჩა","lat":41.722313,"lon":44.773651,"vehicleMode":"BUS"},"patternSuffixes":["1:01"]},{"stop":{"id":"1:17128","code":"2119","name":"მ/ს \"ტექნიკური უნივერსიტეტი\"","lat":41.72124,"lon":44.774732,"vehicleMode":"BUS"},"patternSuffixes":["1:01"]},{"stop":{"id":"1:17079","code":"925","name":"26 მაისის მოედანი","lat":41.71775,"lon":44.778192,"vehicleMode":"BUS"},"patternSuffixes":["1:01"]},{"stop":{"id":"1:17066","code":"924","name":"სიმონ ჩიქოვანის ქუჩა","lat":41.716152,"lon":44.778632,"vehicleMode":"BUS"},"patternSuffixes":["1:01"]},{"stop":{"id":"1:17124","code":"3569","name":"იუსტიციის სახლი","lat":41.698677,"lon":44.805604,"vehicleMode":"BUS"},"patternSuffixes":["1:01"]},{"stop":{"id":"1:17036","code":"1362","name":"მშვიდობის ხიდი","lat":41.692056,"lon":44.807876,"vehicleMode":"BUS"},"patternSuffixes":["1:01"]},{"stop":{"id":"1:17037","code":"1464","name":"Abanotubani","lat":41.688888,"lon":44.812876,"vehicleMode":"BUS"},"patternSuffixes":["1:01"]},{"stop":{"id":"1:17069","code":"2914","name":"ალექსანდრე შიმკევიჩის ქუჩა","lat":41.688381,"lon":44.816617,"vehicleMode":"BUS"},"patternSuffixes":["1:01"]},{"stop":{"id":"1:17038","code":"1365","name":"იბრაჰიმ-ისფაჰანლის ქუჩა","lat":41.687728,"lon":44.818586,"vehicleMode":"BUS"},"patternSuffixes":["1:01"]},{"stop":{"id":"1:17074","code":"1366","name":"300 არაგველის მემორიალი","lat":41.686566,"lon":44.819882,"vehicleMode":"BUS"},"patternSuffixes":["1:01"]},{"stop":{"id":"1:17040","code":"3886","name":"იოსებ გრიშაშვილის ქუჩა","lat":41.684178,"lon":44.822183,"vehicleMode":"BUS"},"patternSuffixes":["1:01"]},{"stop":{"id":"1:17039","code":"1367","name":"ბეჟან კალანდაძის ქუჩა","lat":41.682067,"lon":44.823712,"vehicleMode":"BUS"},"patternSuffixes":["1:01"]},{"stop":{"id":"1:17113","code":"1466","name":"ორთაჭალის ქუჩა","lat":41.679106,"lon":44.824645,"vehicleMode":"BUS"},"patternSuffixes":["1:01"]},{"stop":{"id":"1:17101","code":"3836","name":"Dimitri Gulia Square","lat":41.675566,"lon":44.828529,"vehicleMode":"BUS"},"patternSuffixes":["1:01"]},{"stop":{"id":"1:17010","code":"1668","name":"რუსთავის გზატკეცილი #177","lat":41.654295,"lon":44.901617,"vehicleMode":"BUS"},"patternSuffixes":["1:01"]},{"stop":{"id":"1:17080","code":"1687","name":"Kvemo Ponichala Center","lat":41.644839,"lon":44.911589,"vehicleMode":"BUS"},"patternSuffixes":["1:01"]},{"stop":{"id":"1:17077","code":"4224","name":"ცოტნე დადიანის II ჩიხი","lat":41.628365,"lon":44.921371,"vehicleMode":"BUS"},"patternSuffixes":["1:01"]},{"stop":{"id":"1:237","code":"75","name":"Zh. Shartava Ave. N14","lat":41.56905,"lon":44.964746,"vehicleMode":"BUS"},"patternSuffixes":["1:01"]},{"stop":{"id":"1:240","code":"76","name":"Shartava Avenue #8","lat":41.567036,"lon":44.969573,"vehicleMode":"BUS"},"patternSuffixes":["1:01"]},{"stop":{"id":"1:433","code":"146","name":"Shartava Avenue #4a","lat":41.565646,"lon":44.972885,"vehicleMode":"BUS"},"patternSuffixes":["1:01"]},{"stop":{"id":"1:439","code":"147","name":"Shartava Avenue #2","lat":41.564371,"lon":44.976039,"vehicleMode":"BUS"},"patternSuffixes":["1:01"]},{"stop":{"id":"1:249","code":"77","name":"შარტავას გამზირი (რუსთაველის მოედანი)","lat":41.562696,"lon":44.978159,"vehicleMode":"BUS"},"patternSuffixes":["1:01"]},{"stop":{"id":"1:4212","code":"295","name":"People's Friendship Avenue (nearby hotel Rustavi)","lat":41.561571,"lon":44.979049,"vehicleMode":"BUS"},"patternSuffixes":["1:01"]},{"stop":{"id":"1:255","code":"78","name":"Khalkhta Megobroba Ave. N26","lat":41.558692,"lon":44.981024,"vehicleMode":"BUS"},"patternSuffixes":["1:01"]},{"stop":{"id":"1:276","code":"113","name":"People's Friendship Avenue (archive)","lat":41.555641,"lon":44.983029,"vehicleMode":"BUS"},"patternSuffixes":["1:01"]},{"stop":{"id":"1:109","code":"34","name":"People's Friendship Avenue #14","lat":41.55374,"lon":44.984489,"vehicleMode":"BUS"},"patternSuffixes":["1:01"]},{"stop":{"id":"1:603","code":"92","name":"Khalkhta Megobroba Ave. N6","lat":41.55144,"lon":44.988717,"vehicleMode":"BUS"},"patternSuffixes":["1:01"]},{"stop":{"id":"1:113","code":"36","name":"People's Friendship Avenue (Heroes Square)","lat":41.549886,"lon":44.991716,"vehicleMode":"BUS"},"patternSuffixes":["1:01"]},{"stop":{"id":"1:116","code":"37","name":"Kostava Ave. N1","lat":41.545643,"lon":45.004474,"vehicleMode":"BUS"},"patternSuffixes":["1:01"]},{"stop":{"id":"1:119","code":"38","name":"Kostava Ave. N17","lat":41.543709,"lon":45.009711,"vehicleMode":"BUS"},"patternSuffixes":["1:01"]},{"stop":{"id":"1:445","code":"190","name":"Rustaveli Str.(On the side of the music school)","lat":41.544919,"lon":45.011909,"vehicleMode":"BUS"},"patternSuffixes":["1:01"]},{"stop":{"id":"1:765","code":"189","name":"Rustaveli Str. (opposite to Batumi square)","lat":41.546731,"lon":45.013154,"vehicleMode":"BUS"},"patternSuffixes":["1:01"]},{"stop":{"id":"1:668","code":"95","name":"Rustaveli Street (Chemist's House)","lat":41.550162,"lon":45.015327,"vehicleMode":"BUS"},"patternSuffixes":["1:01"]},{"stop":{"id":"1:282","code":"115","name":"Rustaveli Str. #31","lat":41.553189,"lon":45.017263,"vehicleMode":"BUS"},"patternSuffixes":["1:01"]}]},"1:R15903":{"id":"1:R15903","shortName":"22","color":"11518A","mode":"BUS","patterns":[{"patternSuffix":"0:01","directionId":0,"firstStop":{"id":"1:17065","name":"მ/ს \"დიდუბე\""},"lastStop":{"id":"1:67","name":"Zh. Shartava Avenue #15"},"headsign":"რუსთავი-თბილისი(დიდუბე)"},{"patternSuffix":"1:01","directionId":1,"firstStop":{"id":"1:67","name":"Zh. Shartava Avenue #15"},"lastStop":{"id":"1:17065","name":"მ/ს \"დიდუბე\""},"headsign":"რუსთავი-თბილისი(დიდუბე)"}],"defaultPatternSuffix":"1:01","_stopsOfPatterns":[{"stop":{"id":"1:17065","code":"4599","name":"მ/ს \"დიდუბე\"","lat":41.750054,"lon":44.77868,"vehicleMode":"BUS"},"patternSuffixes":["0:01","1:01"]},{"stop":{"id":"1:17063","code":"4596","name":"წყალტუბოს ქუჩა","lat":41.744577,"lon":44.778313,"vehicleMode":"BUS"},"patternSuffixes":["0:01"]},{"stop":{"id":"1:17061","code":"4594","name":"კონსტანტინე სტანისლავსკის ქუჩა","lat":41.738867,"lon":44.780873,"vehicleMode":"BUS"},"patternSuffixes":["0:01"]},{"stop":{"id":"1:17083","code":"4592","name":"ეროვნული სკრინინგ ცენტრი","lat":41.734762,"lon":44.783342,"vehicleMode":"BUS"},"patternSuffixes":["0:01"]},{"stop":{"id":"1:17082","code":"4590","name":"რაჟდენ გვეტაძის ქუჩა","lat":41.730073,"lon":44.786211,"vehicleMode":"BUS"},"patternSuffixes":["0:01"]},{"stop":{"id":"1:17071","code":"4588","name":"მ/ს \"წერეთელი\"","lat":41.727203,"lon":44.788685,"vehicleMode":"BUS"},"patternSuffixes":["0:01"]},{"stop":{"id":"1:17134","code":"4586","name":"ბორის პაიჭაძის ეროვნული სტადიონი","lat":41.722869,"lon":44.791456,"vehicleMode":"BUS"},"patternSuffixes":["0:01"]},{"stop":{"id":"1:17138","code":"912","name":"მუსკომედიისა და დრამის თეატრი","lat":41.720565,"lon":44.788983,"vehicleMode":"BUS"},"patternSuffixes":["0:01"]},{"stop":{"id":"1:17026","code":"801","name":"#24-ე საჯარო სკოლა","lat":41.716785,"lon":44.791898,"vehicleMode":"BUS"},"patternSuffixes":["0:01"]},{"stop":{"id":"1:17093","code":"914","name":"გიორგი ტოვსტონოგოვის ქუჩა","lat":41.713414,"lon":44.794411,"vehicleMode":"BUS"},"patternSuffixes":["0:01"]},{"stop":{"id":"1:17028","code":"915","name":"მ/ს \"მარჯანიშვილი\"","lat":41.710186,"lon":44.796785,"vehicleMode":"BUS"},"patternSuffixes":["0:01"]},{"stop":{"id":"1:17022","code":"1211","name":"კოტე მარჯანიშვილის თეატრი","lat":41.70845,"lon":44.794277,"vehicleMode":"BUS"},"patternSuffixes":["0:01"]},{"stop":{"id":"1:17124","code":"3569","name":"იუსტიციის სახლი","lat":41.698677,"lon":44.805604,"vehicleMode":"BUS"},"patternSuffixes":["0:01"]},{"stop":{"id":"1:17036","code":"1362","name":"მშვიდობის ხიდი","lat":41.692056,"lon":44.807876,"vehicleMode":"BUS"},"patternSuffixes":["0:01"]},{"stop":{"id":"1:17037","code":"1464","name":"Abanotubani","lat":41.688888,"lon":44.812876,"vehicleMode":"BUS"},"patternSuffixes":["0:01"]},{"stop":{"id":"1:17069","code":"2914","name":"ალექსანდრე შიმკევიჩის ქუჩა","lat":41.688381,"lon":44.816617,"vehicleMode":"BUS"},"patternSuffixes":["0:01"]},{"stop":{"id":"1:17038","code":"1365","name":"იბრაჰიმ-ისფაჰანლის ქუჩა","lat":41.687728,"lon":44.818586,"vehicleMode":"BUS"},"patternSuffixes":["0:01"]},{"stop":{"id":"1:17074","code":"1366","name":"300 არაგველის მემორიალი","lat":41.686566,"lon":44.819882,"vehicleMode":"BUS"},"patternSuffixes":["0:01"]},{"stop":{"id":"1:17040","code":"3886","name":"იოსებ გრიშაშვილის ქუჩა","lat":41.684178,"lon":44.822183,"vehicleMode":"BUS"},"patternSuffixes":["0:01"]},{"stop":{"id":"1:17039","code":"1367","name":"ბეჟან კალანდაძის ქუჩა","lat":41.682067,"lon":44.823712,"vehicleMode":"BUS"},"patternSuffixes":["0:01"]},{"stop":{"id":"1:17113","code":"1466","name":"ორთაჭალის ქუჩა","lat":41.679106,"lon":44.824645,"vehicleMode":"BUS"},"patternSuffixes":["0:01"]},{"stop":{"id":"1:17101","code":"3836","name":"Dimitri Gulia Square","lat":41.675566,"lon":44.828529,"vehicleMode":"BUS"},"patternSuffixes":["0:01"]},{"stop":{"id":"1:17010","code":"1668","name":"რუსთავის გზატკეცილი #177","lat":41.654295,"lon":44.901617,"vehicleMode":"BUS"},"patternSuffixes":["0:01"]},{"stop":{"id":"1:17080","code":"1687","name":"Kvemo Ponichala Center","lat":41.644839,"lon":44.911589,"vehicleMode":"BUS"},"patternSuffixes":["0:01"]},{"stop":{"id":"1:17077","code":"4224","name":"ცოტნე დადიანის II ჩიხი","lat":41.628365,"lon":44.921371,"vehicleMode":"BUS"},"patternSuffixes":["0:01"]},{"stop":{"id":"1:237","code":"75","name":"Zh. Shartava Ave. N14","lat":41.56905,"lon":44.964746,"vehicleMode":"BUS"},"patternSuffixes":["0:01"]},{"stop":{"id":"1:240","code":"76","name":"Shartava Avenue #8","lat":41.567036,"lon":44.969573,"vehicleMode":"BUS"},"patternSuffixes":["0:01"]},{"stop":{"id":"1:433","code":"146","name":"Shartava Avenue #4a","lat":41.565646,"lon":44.972885,"vehicleMode":"BUS"},"patternSuffixes":["0:01"]},{"stop":{"id":"1:439","code":"147","name":"Shartava Avenue #2","lat":41.564371,"lon":44.976039,"vehicleMode":"BUS"},"patternSuffixes":["0:01"]},{"stop":{"id":"1:249","code":"77","name":"შარტავას გამზირი (რუსთაველის მოედანი)","lat":41.562696,"lon":44.978159,"vehicleMode":"BUS"},"patternSuffixes":["0:01"]},{"stop":{"id":"1:64","code":"19","name":"Zh. Shartava Ave. N7","lat":41.564645,"lon":44.976194,"vehicleMode":"BUS"},"patternSuffixes":["0:01"]},{"stop":{"id":"1:67","code":"20","name":"Zh. Shartava Avenue #15","lat":41.565753,"lon":44.973673,"vehicleMode":"BUS"},"patternSuffixes":["0:01","1:01"]},{"stop":{"id":"1:70","code":"21","name":"Zh. Shartava Avenue #21","lat":41.567533,"lon":44.969223,"vehicleMode":"BUS"},"patternSuffixes":["1:01"]},{"stop":{"id":"1:73","code":"22","name":"Zh. Shartava Avenue #25","lat":41.569296,"lon":44.964999,"vehicleMode":"BUS"},"patternSuffixes":["1:01"]},{"stop":{"id":"1:16670","code":"4016","name":"ფონიჭალის ნაკრძალი","lat":41.628816,"lon":44.922903,"vehicleMode":"BUS"},"patternSuffixes":["1:01"]},{"stop":{"id":"1:17120","code":"1676","name":"Kvemo Ponichala Center","lat":41.644779,"lon":44.911761,"vehicleMode":"BUS"},"patternSuffixes":["1:01"]},{"stop":{"id":"1:2327","code":"222","name":"Ponichala","lat":41.653171,"lon":44.904103,"vehicleMode":"BUS"},"patternSuffixes":["1:01"]},{"stop":{"id":"1:17119","code":"1691","name":"რუსთავის გზატკეცილი #22","lat":41.654405,"lon":44.901609,"vehicleMode":"BUS"},"patternSuffixes":["1:01"]},{"stop":{"id":"1:11655","code":"513","name":"Rustavi Highway #20A","lat":41.65575,"lon":44.89914,"vehicleMode":"BUS"},"patternSuffixes":["1:01"]},{"stop":{"id":"1:17008","code":"1946","name":"Dimitri Gulia Square","lat":41.675647,"lon":44.828569,"vehicleMode":"BUS"},"patternSuffixes":["1:01"]},{"stop":{"id":"1:17033","code":"1387","name":"ბეჟან კალანდაძის ქუჩა","lat":41.681434,"lon":44.824063,"vehicleMode":"BUS"},"patternSuffixes":["1:01"]},{"stop":{"id":"1:17086","code":"1388","name":"ვახტანგ გორგასლის მოედანი","lat":41.683515,"lon":44.82298,"vehicleMode":"BUS"},"patternSuffixes":["1:01"]},{"stop":{"id":"1:17075","code":"3085","name":"300 არაგველის მემორიალი","lat":41.686398,"lon":44.820147,"vehicleMode":"BUS"},"patternSuffixes":["1:01"]},{"stop":{"id":"1:17125","code":"1390","name":"იბრაჰიმ-ისფაჰანლის ქუჩა","lat":41.687792,"lon":44.818661,"vehicleMode":"BUS"},"patternSuffixes":["1:01"]},{"stop":{"id":"1:17034","code":"3128","name":"ალექსანდრე შიმკევიჩის ქუჩა","lat":41.688453,"lon":44.816674,"vehicleMode":"BUS"},"patternSuffixes":["1:01"]},{"stop":{"id":"1:17076","code":"3486","name":"ძმები სიმენსების ქუჩა","lat":41.688769,"lon":44.814761,"vehicleMode":"BUS"},"patternSuffixes":["1:01"]},{"stop":{"id":"1:17035","code":"1465","name":"Abanotubani","lat":41.688974,"lon":44.812846,"vehicleMode":"BUS"},"patternSuffixes":["1:01"]},{"stop":{"id":"1:17073","code":"1495","name":"ევროპის მოედანი","lat":41.691003,"lon":44.811422,"vehicleMode":"BUS"},"patternSuffixes":["1:01"]},{"stop":{"id":"1:17084","code":"4575","name":"ნოე ჟორდანიას სანაპირო","lat":41.704277,"lon":44.7981,"vehicleMode":"BUS"},"patternSuffixes":["1:01"]},{"stop":{"id":"1:17027","code":"1213","name":"კოტე მარჯანიშვილის თეატრი","lat":41.708478,"lon":44.794602,"vehicleMode":"BUS"},"patternSuffixes":["1:01"]},{"stop":{"id":"1:17131","code":"867","name":"მ/ს \"მარჯანიშვილი\"","lat":41.709477,"lon":44.797614,"vehicleMode":"BUS"},"patternSuffixes":["1:01"]},{"stop":{"id":"1:17091","code":"3594","name":"ზურაბ ჭავჭავაძის ქუჩა","lat":41.711163,"lon":44.796195,"vehicleMode":"BUS"},"patternSuffixes":["1:01"]},{"stop":{"id":"1:17094","code":"3595","name":"გიორგი ტოვსტონოგოვის ქუჩა","lat":41.713426,"lon":44.794529,"vehicleMode":"BUS"},"patternSuffixes":["1:01"]},{"stop":{"id":"1:17009","code":"3596","name":"ია კარგარეთელის ქუჩა","lat":41.714937,"lon":44.793446,"vehicleMode":"BUS"},"patternSuffixes":["1:01"]},{"stop":{"id":"1:17090","code":"3597","name":"#24-ე საჯარო სკოლა","lat":41.71714,"lon":44.791753,"vehicleMode":"BUS"},"patternSuffixes":["1:01"]},{"stop":{"id":"1:17132","code":"3598","name":"მურმან ლებანიძის ქუჩა","lat":41.718975,"lon":44.79042,"vehicleMode":"BUS"},"patternSuffixes":["1:01"]},{"stop":{"id":"1:17137","code":"3599","name":"მუსკომედიის და დრამის თეატრი","lat":41.720399,"lon":44.789251,"vehicleMode":"BUS"},"patternSuffixes":["1:01"]},{"stop":{"id":"1:17133","code":"4585","name":"ბორის პაიჭაძის ეროვნული სტადიონი","lat":41.722959,"lon":44.791619,"vehicleMode":"BUS"},"patternSuffixes":["1:01"]},{"stop":{"id":"1:17070","code":"4587","name":"მ/ს \"წერეთელი\"","lat":41.72735,"lon":44.788726,"vehicleMode":"BUS"},"patternSuffixes":["1:01"]},{"stop":{"id":"1:17081","code":"4589","name":"რაჟდენ გვეტაძის ქუჩა","lat":41.730915,"lon":44.785753,"vehicleMode":"BUS"},"patternSuffixes":["1:01"]},{"stop":{"id":"1:17072","code":"4591","name":"ეროვნული სკრინინგ ცენტრი","lat":41.735332,"lon":44.783028,"vehicleMode":"BUS"},"patternSuffixes":["1:01"]},{"stop":{"id":"1:17117","code":"4593","name":"კონსტანტინე სტანისლავსკის ქუჩა","lat":41.73956,"lon":44.780523,"vehicleMode":"BUS"},"patternSuffixes":["1:01"]},{"stop":{"id":"1:17136","code":"4595","name":"წყალტუბოს ქუჩა","lat":41.745373,"lon":44.77813,"vehicleMode":"BUS"},"patternSuffixes":["1:01"]},{"stop":{"id":"1:17064","code":"4597","name":"მ/ს \"დიდუბე\"","lat":41.74935,"lon":44.777279,"vehicleMode":"BUS"},"patternSuffixes":["1:01"]}]},"1:R15907":{"id":"1:R15907","shortName":"23","color":"11518A","mode":"BUS","patterns":[{"patternSuffix":"0:01","directionId":0,"firstStop":{"id":"1:16085","name":"უნივერსიტეტის მაღლივი კორპუსი"},"lastStop":{"id":"1:198","name":"Gagarini Str. #12 (Metallurgical Plant)"},"headsign":"რუსთავი-თბილისი(უნივერსიტეტის მაღლივი კორპუსი)"},{"patternSuffix":"1:01","directionId":1,"firstStop":{"id":"1:198","name":"Gagarini Str. #12 (Metallurgical Plant)"},"lastStop":{"id":"1:16085","name":"უნივერსიტეტის მაღლივი კორპუსი"},"headsign":"რუსთავი-თბილისი(უნივერსიტეტის მაღლივი კორპუსი)"}],"defaultPatternSuffix":"1:01","_stopsOfPatterns":[{"stop":{"id":"1:16085","code":"562","name":"უნივერსიტეტის მაღლივი კორპუსი","lat":41.717727,"lon":44.71973,"vehicleMode":"BUS"},"patternSuffixes":["0:01","1:01"]},{"stop":{"id":"1:17089","code":"976","name":"ბაგების საბაგირო","lat":41.717352,"lon":44.718245,"vehicleMode":"BUS"},"patternSuffixes":["0:01"]},{"stop":{"id":"1:17067","code":"3792","name":"უნივერსიტეტის მაღლივი კორპუსი","lat":41.717367,"lon":44.721926,"vehicleMode":"BUS"},"patternSuffixes":["0:01"]},{"stop":{"id":"1:17122","code":"3714","name":"ოლიმპიური სასახლე","lat":41.717532,"lon":44.727611,"vehicleMode":"BUS"},"patternSuffixes":["0:01"]},{"stop":{"id":"1:17013","code":"3715","name":"უნივერსიტეტის ქუჩა #10","lat":41.717786,"lon":44.73123,"vehicleMode":"BUS"},"patternSuffixes":["0:01"]},{"stop":{"id":"1:17014","code":"3716","name":"უნივერსიტეტის ქუჩა #8","lat":41.718085,"lon":44.734613,"vehicleMode":"BUS"},"patternSuffixes":["0:01"]},{"stop":{"id":"1:17015","code":"3717","name":"ოთარ ლორთქიფანიძის ქუჩა","lat":41.718799,"lon":44.738884,"vehicleMode":"BUS"},"patternSuffixes":["0:01"]},{"stop":{"id":"1:17056","code":"3726","name":"უნივერსიტეტის ქუჩა #2","lat":41.719322,"lon":44.741579,"vehicleMode":"BUS"},"patternSuffixes":["0:01"]},{"stop":{"id":"1:17016","code":"3718","name":"უნივერსიტეტის ქუჩა #1","lat":41.719839,"lon":44.744781,"vehicleMode":"BUS"},"patternSuffixes":["0:01"]},{"stop":{"id":"1:17092","code":"4252","name":"მიხეილ თამარაშვილის გამზირი #13","lat":41.717186,"lon":44.745386,"vehicleMode":"BUS"},"patternSuffixes":["0:01"]},{"stop":{"id":"1:17104","code":"1240","name":"ილიას სახელმწიფო უნივერსიტეტი","lat":41.71361,"lon":44.746488,"vehicleMode":"BUS"},"patternSuffixes":["0:01"]},{"stop":{"id":"1:17048","code":"3976","name":"ვაკის პარკი","lat":41.712208,"lon":44.751835,"vehicleMode":"BUS"},"patternSuffixes":["0:01"]},{"stop":{"id":"1:17110","code":"3972","name":"ნიკოლოზ ყიფშიძის ქუჩა","lat":41.711375,"lon":44.75604,"vehicleMode":"BUS"},"patternSuffixes":["0:01"]},{"stop":{"id":"1:17047","code":"3971","name":"ნიკოლოზ ყიფშიძის ქუჩა","lat":41.711325,"lon":44.75634,"vehicleMode":"BUS"},"patternSuffixes":["0:01"]},{"stop":{"id":"1:17105","code":"3968","name":"ლადო კავსაძის ქუჩა","lat":41.710433,"lon":44.762113,"vehicleMode":"BUS"},"patternSuffixes":["0:01"]},{"stop":{"id":"1:17111","code":"3967","name":"ლადო კავსაძის ქუჩა","lat":41.710397,"lon":44.762412,"vehicleMode":"BUS"},"patternSuffixes":["0:01"]},{"stop":{"id":"1:17058","code":"3964","name":"მზიური","lat":41.709575,"lon":44.768943,"vehicleMode":"BUS"},"patternSuffixes":["0:01"]},{"stop":{"id":"1:17096","code":"3963","name":"მზიური","lat":41.709522,"lon":44.769239,"vehicleMode":"BUS"},"patternSuffixes":["0:01"]},{"stop":{"id":"1:17044","code":"3960","name":"რაფიელ ერისთავის ქუჩა","lat":41.709027,"lon":44.77427,"vehicleMode":"BUS"},"patternSuffixes":["0:01"]},{"stop":{"id":"1:17097","code":"3959","name":"რაფიელ ერისთავის ქუჩა","lat":41.709092,"lon":44.774554,"vehicleMode":"BUS"},"patternSuffixes":["0:01"]},{"stop":{"id":"1:17051","code":"3956","name":"სახელმწიფო უნივერსიტეტი","lat":41.70932,"lon":44.778426,"vehicleMode":"BUS"},"patternSuffixes":["0:01"]},{"stop":{"id":"1:17043","code":"3955","name":"სახელმწიფო უნივერსიტეტი","lat":41.709267,"lon":44.778718,"vehicleMode":"BUS"},"patternSuffixes":["0:01"]},{"stop":{"id":"1:17112","code":"806","name":"სიმონ ჯანაშიას ქუჩა","lat":41.708005,"lon":44.782879,"vehicleMode":"BUS"},"patternSuffixes":["0:01"]},{"stop":{"id":"1:17024","code":"1241","name":"ფილარმონია","lat":41.706728,"lon":44.786362,"vehicleMode":"BUS"},"patternSuffixes":["0:01"]},{"stop":{"id":"1:17068","code":"814","name":"მ/ს \"რუსთაველი\"","lat":41.703223,"lon":44.791209,"vehicleMode":"BUS"},"patternSuffixes":["0:01"]},{"stop":{"id":"1:17025","code":"818","name":"ოპერის თეატრი","lat":41.700712,"lon":44.795598,"vehicleMode":"BUS"},"patternSuffixes":["0:01"]},{"stop":{"id":"1:17087","code":"820","name":"პირველი კლასიკური გიმნაზია","lat":41.69788,"lon":44.798582,"vehicleMode":"BUS"},"patternSuffixes":["0:01"]},{"stop":{"id":"1:17042","code":"821","name":"მ/ს \"თავისუფლების მოედანი\"","lat":41.695413,"lon":44.800103,"vehicleMode":"BUS"},"patternSuffixes":["0:01"]},{"stop":{"id":"1:17023","code":"851","name":"ნიკოლოზ ბარათაშვილის ქუჩა","lat":41.69638,"lon":44.804341,"vehicleMode":"BUS"},"patternSuffixes":["0:01"]},{"stop":{"id":"1:17036","code":"1362","name":"მშვიდობის ხიდი","lat":41.692056,"lon":44.807876,"vehicleMode":"BUS"},"patternSuffixes":["0:01"]},{"stop":{"id":"1:17037","code":"1464","name":"Abanotubani","lat":41.688888,"lon":44.812876,"vehicleMode":"BUS"},"patternSuffixes":["0:01"]},{"stop":{"id":"1:17069","code":"2914","name":"ალექსანდრე შიმკევიჩის ქუჩა","lat":41.688381,"lon":44.816617,"vehicleMode":"BUS"},"patternSuffixes":["0:01"]},{"stop":{"id":"1:17038","code":"1365","name":"იბრაჰიმ-ისფაჰანლის ქუჩა","lat":41.687728,"lon":44.818586,"vehicleMode":"BUS"},"patternSuffixes":["0:01"]},{"stop":{"id":"1:17074","code":"1366","name":"300 არაგველის მემორიალი","lat":41.686566,"lon":44.819882,"vehicleMode":"BUS"},"patternSuffixes":["0:01"]},{"stop":{"id":"1:17040","code":"3886","name":"იოსებ გრიშაშვილის ქუჩა","lat":41.684178,"lon":44.822183,"vehicleMode":"BUS"},"patternSuffixes":["0:01"]},{"stop":{"id":"1:17039","code":"1367","name":"ბეჟან კალანდაძის ქუჩა","lat":41.682067,"lon":44.823712,"vehicleMode":"BUS"},"patternSuffixes":["0:01"]},{"stop":{"id":"1:17113","code":"1466","name":"ორთაჭალის ქუჩა","lat":41.679106,"lon":44.824645,"vehicleMode":"BUS"},"patternSuffixes":["0:01"]},{"stop":{"id":"1:17101","code":"3836","name":"Dimitri Gulia Square","lat":41.675566,"lon":44.828529,"vehicleMode":"BUS"},"patternSuffixes":["0:01"]},{"stop":{"id":"1:17010","code":"1668","name":"რუსთავის გზატკეცილი #177","lat":41.654295,"lon":44.901617,"vehicleMode":"BUS"},"patternSuffixes":["0:01"]},{"stop":{"id":"1:17080","code":"1687","name":"Kvemo Ponichala Center","lat":41.644839,"lon":44.911589,"vehicleMode":"BUS"},"patternSuffixes":["0:01"]},{"stop":{"id":"1:17077","code":"4224","name":"ცოტნე დადიანის II ჩიხი","lat":41.628365,"lon":44.921371,"vehicleMode":"BUS"},"patternSuffixes":["0:01"]},{"stop":{"id":"1:237","code":"75","name":"Zh. Shartava Ave. N14","lat":41.56905,"lon":44.964746,"vehicleMode":"BUS"},"patternSuffixes":["0:01"]},{"stop":{"id":"1:240","code":"76","name":"Shartava Avenue #8","lat":41.567036,"lon":44.969573,"vehicleMode":"BUS"},"patternSuffixes":["0:01"]},{"stop":{"id":"1:433","code":"146","name":"Shartava Avenue #4a","lat":41.565646,"lon":44.972885,"vehicleMode":"BUS"},"patternSuffixes":["0:01"]},{"stop":{"id":"1:439","code":"147","name":"Shartava Avenue #2","lat":41.564371,"lon":44.976039,"vehicleMode":"BUS"},"patternSuffixes":["0:01"]},{"stop":{"id":"1:249","code":"77","name":"შარტავას გამზირი (რუსთაველის მოედანი)","lat":41.562696,"lon":44.978159,"vehicleMode":"BUS"},"patternSuffixes":["0:01"]},{"stop":{"id":"1:255","code":"78","name":"Khalkhta Megobroba Ave. N26","lat":41.558692,"lon":44.981024,"vehicleMode":"BUS"},"patternSuffixes":["0:01"]},{"stop":{"id":"1:276","code":"113","name":"People's Friendship Avenue (archive)","lat":41.555641,"lon":44.983029,"vehicleMode":"BUS"},"patternSuffixes":["0:01"]},{"stop":{"id":"1:109","code":"34","name":"People's Friendship Avenue #14","lat":41.55374,"lon":44.984489,"vehicleMode":"BUS"},"patternSuffixes":["0:01"]},{"stop":{"id":"1:603","code":"92","name":"Khalkhta Megobroba Ave. N6","lat":41.55144,"lon":44.988717,"vehicleMode":"BUS"},"patternSuffixes":["0:01"]},{"stop":{"id":"1:113","code":"36","name":"People's Friendship Avenue (Heroes Square)","lat":41.549886,"lon":44.991716,"vehicleMode":"BUS"},"patternSuffixes":["0:01"]},{"stop":{"id":"1:116","code":"37","name":"Kostava Ave. N1","lat":41.545643,"lon":45.004474,"vehicleMode":"BUS"},"patternSuffixes":["0:01"]},{"stop":{"id":"1:119","code":"38","name":"Kostava Ave. N17","lat":41.543709,"lon":45.009711,"vehicleMode":"BUS"},"patternSuffixes":["0:01"]},{"stop":{"id":"1:466","code":"153","name":"Kostava Str. #23","lat":41.54253,"lon":45.012881,"vehicleMode":"BUS"},"patternSuffixes":["0:01"]},{"stop":{"id":"1:309","code":"80","name":"Kostava Ave. N33","lat":41.541146,"lon":45.01647,"vehicleMode":"BUS"},"patternSuffixes":["0:01"]},{"stop":{"id":"1:198","code":"100","name":"Gagarini Str. #12 (Metallurgical Plant)","lat":41.539616,"lon":45.021242,"vehicleMode":"BUS"},"patternSuffixes":["0:01","1:01"]},{"stop":{"id":"1:207","code":"101","name":"Kostava Street #34","lat":41.54143,"lon":45.016624,"vehicleMode":"BUS"},"patternSuffixes":["1:01"]},{"stop":{"id":"1:210","code":"102","name":"Kostava Str. #22","lat":41.542729,"lon":45.012958,"vehicleMode":"BUS"},"patternSuffixes":["1:01"]},{"stop":{"id":"1:20579","code":"574","name":"კოსტავას გამზირი #18","lat":41.543578,"lon":45.01053,"vehicleMode":"BUS"},"patternSuffixes":["1:01"]},{"stop":{"id":"1:43","code":"12","name":"Kostava Ave. N12","lat":41.544652,"lon":45.007646,"vehicleMode":"BUS"},"patternSuffixes":["1:01"]},{"stop":{"id":"1:46","code":"13","name":"Kostava Ave. N23","lat":41.545831,"lon":45.00441,"vehicleMode":"BUS"},"patternSuffixes":["1:01"]},{"stop":{"id":"1:49","code":"14","name":"Khalkhta Megobroba Avenue","lat":41.550605,"lon":44.992673,"vehicleMode":"BUS"},"patternSuffixes":["1:01"]},{"stop":{"id":"1:52","code":"15","name":"People's Friendship Avenue #5","lat":41.55177,"lon":44.988299,"vehicleMode":"BUS"},"patternSuffixes":["1:01"]},{"stop":{"id":"1:544","code":"52","name":"Khalkhta Megobroba Str. N9 (Post Office)","lat":41.552529,"lon":44.986488,"vehicleMode":"BUS"},"patternSuffixes":["1:01"]},{"stop":{"id":"1:55","code":"16","name":"People's Friendship Avenue (House of Justice)","lat":41.555869,"lon":44.98328,"vehicleMode":"BUS"},"patternSuffixes":["1:01"]},{"stop":{"id":"1:58","code":"17","name":"People's Friendship Avenue #41","lat":41.5591,"lon":44.981144,"vehicleMode":"BUS"},"patternSuffixes":["1:01"]},{"stop":{"id":"1:61","code":"18","name":"People's Friendship Avenue (Polocninic #2)","lat":41.562368,"lon":44.979173,"vehicleMode":"BUS"},"patternSuffixes":["1:01"]},{"stop":{"id":"1:64","code":"19","name":"Zh. Shartava Ave. N7","lat":41.564645,"lon":44.976194,"vehicleMode":"BUS"},"patternSuffixes":["1:01"]},{"stop":{"id":"1:67","code":"20","name":"Zh. Shartava Avenue #15","lat":41.565753,"lon":44.973673,"vehicleMode":"BUS"},"patternSuffixes":["1:01"]},{"stop":{"id":"1:70","code":"21","name":"Zh. Shartava Avenue #21","lat":41.567533,"lon":44.969223,"vehicleMode":"BUS"},"patternSuffixes":["1:01"]},{"stop":{"id":"1:73","code":"22","name":"Zh. Shartava Avenue #25","lat":41.569296,"lon":44.964999,"vehicleMode":"BUS"},"patternSuffixes":["1:01"]},{"stop":{"id":"1:16670","code":"4016","name":"ფონიჭალის ნაკრძალი","lat":41.628816,"lon":44.922903,"vehicleMode":"BUS"},"patternSuffixes":["1:01"]},{"stop":{"id":"1:17120","code":"1676","name":"Kvemo Ponichala Center","lat":41.644779,"lon":44.911761,"vehicleMode":"BUS"},"patternSuffixes":["1:01"]},{"stop":{"id":"1:2327","code":"222","name":"Ponichala","lat":41.653171,"lon":44.904103,"vehicleMode":"BUS"},"patternSuffixes":["1:01"]},{"stop":{"id":"1:17119","code":"1691","name":"რუსთავის გზატკეცილი #22","lat":41.654405,"lon":44.901609,"vehicleMode":"BUS"},"patternSuffixes":["1:01"]},{"stop":{"id":"1:11655","code":"513","name":"Rustavi Highway #20A","lat":41.65575,"lon":44.89914,"vehicleMode":"BUS"},"patternSuffixes":["1:01"]},{"stop":{"id":"1:17008","code":"1946","name":"Dimitri Gulia Square","lat":41.675647,"lon":44.828569,"vehicleMode":"BUS"},"patternSuffixes":["1:01"]},{"stop":{"id":"1:17033","code":"1387","name":"ბეჟან კალანდაძის ქუჩა","lat":41.681434,"lon":44.824063,"vehicleMode":"BUS"},"patternSuffixes":["1:01"]},{"stop":{"id":"1:17086","code":"1388","name":"ვახტანგ გორგასლის მოედანი","lat":41.683515,"lon":44.82298,"vehicleMode":"BUS"},"patternSuffixes":["1:01"]},{"stop":{"id":"1:17075","code":"3085","name":"300 არაგველის მემორიალი","lat":41.686398,"lon":44.820147,"vehicleMode":"BUS"},"patternSuffixes":["1:01"]},{"stop":{"id":"1:17125","code":"1390","name":"იბრაჰიმ-ისფაჰანლის ქუჩა","lat":41.687792,"lon":44.818661,"vehicleMode":"BUS"},"patternSuffixes":["1:01"]},{"stop":{"id":"1:17034","code":"3128","name":"ალექსანდრე შიმკევიჩის ქუჩა","lat":41.688453,"lon":44.816674,"vehicleMode":"BUS"},"patternSuffixes":["1:01"]},{"stop":{"id":"1:17076","code":"3486","name":"ძმები სიმენსების ქუჩა","lat":41.688769,"lon":44.814761,"vehicleMode":"BUS"},"patternSuffixes":["1:01"]},{"stop":{"id":"1:17035","code":"1465","name":"Abanotubani","lat":41.688974,"lon":44.812846,"vehicleMode":"BUS"},"patternSuffixes":["1:01"]},{"stop":{"id":"1:17073","code":"1495","name":"ევროპის მოედანი","lat":41.691003,"lon":44.811422,"vehicleMode":"BUS"},"patternSuffixes":["1:01"]},{"stop":{"id":"1:17129","code":"2994","name":"Elene Akhvlediani Ascent","lat":41.697618,"lon":44.809107,"vehicleMode":"BUS"},"patternSuffixes":["1:01"]},{"stop":{"id":"1:17041","code":"3932","name":"ნიკოლოზ ბარათაშვილის ქუჩა","lat":41.696601,"lon":44.803955,"vehicleMode":"BUS"},"patternSuffixes":["1:01"]},{"stop":{"id":"1:17102","code":"822","name":"თავისუფლების მოედანი","lat":41.694033,"lon":44.801559,"vehicleMode":"BUS"},"patternSuffixes":["1:01"]},{"stop":{"id":"1:17100","code":"819","name":"პირველი კლასიკური გიმნაზია","lat":41.698033,"lon":44.798617,"vehicleMode":"BUS"},"patternSuffixes":["1:01"]},{"stop":{"id":"1:17017","code":"817","name":"ოპერის თეატრი","lat":41.700768,"lon":44.795693,"vehicleMode":"BUS"},"patternSuffixes":["1:01"]},{"stop":{"id":"1:17107","code":"815","name":"მ/ს \"რუსთაველი\"","lat":41.70334,"lon":44.791208,"vehicleMode":"BUS"},"patternSuffixes":["1:01"]},{"stop":{"id":"1:17062","code":"3953","name":"სახელმწიფო უნივერსიტეტი","lat":41.709251,"lon":44.778715,"vehicleMode":"BUS"},"patternSuffixes":["1:01"]},{"stop":{"id":"1:17103","code":"3954","name":"სახელმწიფო უნივერსიტეტი","lat":41.709304,"lon":44.778423,"vehicleMode":"BUS"},"patternSuffixes":["1:01"]},{"stop":{"id":"1:17052","code":"3957","name":"რაფიელ ერისთავის ქუჩა","lat":41.709063,"lon":44.774568,"vehicleMode":"BUS"},"patternSuffixes":["1:01"]},{"stop":{"id":"1:17057","code":"3958","name":"რაფიელ ერისთავის ქუჩა","lat":41.708998,"lon":44.774279,"vehicleMode":"BUS"},"patternSuffixes":["1:01"]},{"stop":{"id":"1:17045","code":"3961","name":"მზიური","lat":41.709505,"lon":44.769233,"vehicleMode":"BUS"},"patternSuffixes":["1:01"]},{"stop":{"id":"1:17046","code":"3962","name":"მზიური","lat":41.709559,"lon":44.768939,"vehicleMode":"BUS"},"patternSuffixes":["1:01"]},{"stop":{"id":"1:17108","code":"3965","name":"ლადო კავსაძის ქუჩა","lat":41.710364,"lon":44.762407,"vehicleMode":"BUS"},"patternSuffixes":["1:01"]},{"stop":{"id":"1:17109","code":"3966","name":"ლადო კავსაძის ქუჩა","lat":41.710403,"lon":44.762111,"vehicleMode":"BUS"},"patternSuffixes":["1:01"]},{"stop":{"id":"1:17059","code":"3969","name":"ნიკოლოზ ყიფშიძის ქუჩა","lat":41.711283,"lon":44.756329,"vehicleMode":"BUS"},"patternSuffixes":["1:01"]},{"stop":{"id":"1:17095","code":"3970","name":"ნიკოლოზ ყიფშიძის ქუჩა","lat":41.711337,"lon":44.756032,"vehicleMode":"BUS"},"patternSuffixes":["1:01"]},{"stop":{"id":"1:17060","code":"3973","name":"ვაკის პარკი","lat":41.712135,"lon":44.752127,"vehicleMode":"BUS"},"patternSuffixes":["1:01"]},{"stop":{"id":"1:17088","code":"3974","name":"ვაკის პარკი","lat":41.712215,"lon":44.751847,"vehicleMode":"BUS"},"patternSuffixes":["1:01"]},{"stop":{"id":"1:17050","code":"1265","name":"ილიას სახელმწიფო უნივერსიტეტი","lat":41.713574,"lon":44.748538,"vehicleMode":"BUS"},"patternSuffixes":["1:01"]},{"stop":{"id":"1:17126","code":"3709","name":"უნივერსიტეტის ქუჩა #1","lat":41.719956,"lon":44.744397,"vehicleMode":"BUS"},"patternSuffixes":["1:01"]},{"stop":{"id":"1:17135","code":"4502","name":"უნივერსიტეტის ქუჩა #2","lat":41.719404,"lon":44.741557,"vehicleMode":"BUS"},"patternSuffixes":["1:01"]},{"stop":{"id":"1:17011","code":"3710","name":"ოთარ ლორთქიფანიძის ქუჩა","lat":41.718927,"lon":44.739096,"vehicleMode":"BUS"},"patternSuffixes":["1:01"]},