[{"id":"1:100","code":"31","name":"თოდრიას II ჩიხი 1 კორპ მიმდებარედ","lat":41.561395,"lon":44.98558,"vehicleMode":"BUS"},{"id":"1:103","code":"32","name":"თოდრიას I ჩიხი","lat":41.55928,"lon":44.986928,"vehicleMode":"BUS"},{"id":"1:106","code":"33","name":"კლდიაშვილის ქუჩა №11 მოპირდაპირედ (ახალგ. პარკი)","lat":41.557006,"lon":44.987792,"vehicleMode":"BUS"},{"id":"1:109","code":"34","name":"ხალხთა მეგობრობის გამზირი №14","lat":41.55374,"lon":44.984489,"vehicleMode":"BUS"},{"id":"1:113","code":"36","name":"ხალხთა მეგობრობის გამზ. (გმირთა მოედანი)","lat":41.549886,"lon":44.991716,"vehicleMode":"BUS"},{"id":"1:116","code":"37","name":"კოსტავას გამზირი №1","lat":41.545643,"lon":45.004474,"vehicleMode":"BUS"},{"id":"1:11655","code":"513","name":"რუსთავის გზატკეცილი 20ა","lat":41.65575,"lon":44.89914,"vehicleMode":"BUS"},{"id":"1:119","code":"38","name":"კოსტავას გამზირი №17","lat":41.543709,"lon":45.009711,"vehicleMode":"BUS"},{"id":"1:11908","code":"530","name":"მე7 მკ/რ #17 მიმდებარედ","lat":41.563689,"lon":44.970778,"vehicleMode":"BUS"},{"id":"1:11911","code":"531","name":"მე7 მკ/რ  #16 მოპირდაპირედ","lat":41.563839,"lon":44.970959,"vehicleMode":"BUS"},{"id":"1:11914","code":"532","name":"მე7 მკ/რ #26 მოპირდაპირედ","lat":41.562511,"lon":44.966662,"vehicleMode":"BUS"},{"id":"1:11917","code":"533","name":"მე7 მკ/რ #26 მიმდებარედ","lat":41.562687,"lon":44.966458,"vehicleMode":"BUS"},{"id":"1:11918","code":"534","name":"მე7 მკ/რ #15","lat":41.565069,"lon":44.967071,"vehicleMode":"BUS"},{"id":"1:11921","code":"535","name":"მე8 მკ/რ #5ა","lat":41.565236,"lon":44.966974,"vehicleMode":"BUS"},{"id":"1:12","code":"4","name":"სასჯელაღსრულების დაწესებულება №17","lat":41.517498,"lon":45.036365,"vehicleMode":"BUS"},{"id":"1:122","code":"39","name":"ფიროსმანის ქუჩა (თეატრის წინ) მონიტორი","lat":41.541267,"lon":45.009921,"vehicleMode":"BUS"},{"id":"1:12234","code":"540","name":"ახალი სასაფლაო","lat":41.582168,"lon":45.020908,"vehicleMode":"BUS"},{"id":"1:12610","code":"550","name":"ტაშკენტის ქუჩა 15მკ/რ #16","lat":41.570176,"lon":44.975721,"vehicleMode":"BUS"},{"id":"1:12617","code":"551","name":"21მკ/რ #12 მოპირდაპირედ","lat":41.572814,"lon":44.971394,"vehicleMode":"BUS"},{"id":"1:128","code":"41","name":"ფიროსმანის ქუჩა №19 (მონიტორი)","lat":41.537623,"lon":45.012691,"vehicleMode":"BUS"},{"id":"1:137","code":"44","name":"მშენებელთა ქუჩა (ყოფილი კომისარიატი)","lat":41.532366,"lon":45.014863,"vehicleMode":"BUS"},{"id":"1:140","code":"45","name":"სასჯელაღსრულების დაწესებულება №16","lat":41.526288,"lon":45.020213,"vehicleMode":"BUS"},{"id":"1:1443","code":"214","name":"ტაშკენტის ქ. N7","lat":41.567683,"lon":44.973989,"vehicleMode":"BUS"},{"id":"1:1446","code":"215","name":"კლდიაშვილის ქუჩა N7 მოპირდაპირედ","lat":41.555681,"lon":44.984182,"vehicleMode":"BUS"},{"id":"1:145","code":"48","name":"მშენებელთა ქუჩა (ცემენტის ქარხანა)","lat":41.5113,"lon":45.043052,"vehicleMode":"BUS"},{"id":"1:148","code":"53","name":"ბალანჩივაძეს ქუჩა №14","lat":41.558798,"lon":45.01443,"vehicleMode":"BUS"},{"id":"1:1503","code":"217","name":"ტაშკენტის ქ. მე-17 კორპ. მოპირდაპირედ","lat":41.568328,"lon":44.974073,"vehicleMode":"BUS"},{"id":"1:1523","code":"218","name":"ფიროსმანის ქუჩა (№1 პოლიკლინიკა) მოპირდაპირედ","lat":41.539365,"lon":45.01098,"vehicleMode":"BUS"},{"id":"1:154","code":"54","name":"ბალანჩივაძეს ქუჩა №6","lat":41.557259,"lon":45.01768,"vehicleMode":"BUS"},{"id":"1:1569","code":"219","name":"რკინიგზის სადგური","lat":41.555916,"lon":45.019168,"vehicleMode":"BUS"},{"id":"1:16085","code":"562","name":"უნივერსიტეტის მაღლივი კორპუსი","lat":41.717727,"lon":44.71973,"vehicleMode":"BUS"},{"id":"1:163","code":"55","name":"სასჯელაღსრულების დაწესებულება №17 (მოპირდაპირედ)","lat":41.517409,"lon":45.036212,"vehicleMode":"BUS"},{"id":"1:16670","code":"4016","name":"ფონიჭალის ნაკრძალი","lat":41.628816,"lon":44.922903,"vehicleMode":"BUS"},{"id":"1:168","code":"56","name":"რუსთაველის ქუჩა №50","lat":41.554842,"lon":45.018199,"vehicleMode":"BUS"},{"id":"1:17008","code":"1946","name":"დიმიტრი გულიას მოედანი","lat":41.675647,"lon":44.828569,"vehicleMode":"BUS"},{"id":"1:17009","code":"3596","name":"ია კარგარეთელის ქუჩა","lat":41.714937,"lon":44.793446,"vehicleMode":"BUS"},{"id":"1:17010","code":"1668","name":"რუსთავის გზატკეცილი #177","lat":41.654295,"lon":44.901617,"vehicleMode":"BUS"},{"id":"1:17011","code":"3710","name":"ოთარ ლორთქიფანიძის ქუჩა","lat":41.718927,"lon":44.739096,"vehicleMode":"BUS"},{"id":"1:17012","code":"3712","name":"უნივერსიტეტის ქუჩა #13","lat":41.717708,"lon":44.729666,"vehicleMode":"BUS"},{"id":"1:17013","code":"3715","name":"უნივერსიტეტის ქუჩა #10","lat":41.717786,"lon":44.73123,"vehicleMode":"BUS"},{"id":"1:17014","code":"3716","name":"უნივერსიტეტის ქუჩა #8","lat":41.718085,"lon":44.734613,"vehicleMode":"BUS"},{"id":"1:17015","code":"3717","name":"ოთარ ლორთქიფანიძის ქუჩა","lat":41.718799,"lon":44.738884,"vehicleMode":"BUS"},{"id":"1:17016","code":"3718","name":"უნივერსიტეტის ქუჩა #1","lat":41.719839,"lon":44.744781,"vehicleMode":"BUS"},{"id":"1:17017","code":"817","name":"ოპერის თეატრი","lat":41.700768,"lon":44.795693,"vehicleMode":"BUS"},{"id":"1:17018","code":"809","name":"ფილარმონია","lat":41.706992,"lon":44.786944,"vehicleMode":"BUS"},{"id":"1:17019","code":"2786","name":"დავით აღმაშენებლის გამზირი","lat":41.718562,"lon":44.791366,"vehicleMode":"BUS"},{"id":"1:17020","code":"2779","name":"მერაბ ალექსიძის ქუჩა","lat":41.715736,"lon":44.785273,"vehicleMode":"BUS"},{"id":"1:17021","code":"2126","name":"დავით აღმაშენებლის გამზირი","lat":41.717958,"lon":44.790388,"vehicleMode":"BUS"},{"id":"1:17022","code":"1211","name":"კოტე მარჯანიშვილის თეატრი","lat":41.70845,"lon":44.794277,"vehicleMode":"BUS"},{"id":"1:17023","code":"851","name":"ნიკოლოზ ბარათაშვილის ქუჩა","lat":41.69638,"lon":44.804341,"vehicleMode":"BUS"},{"id":"1:17024","code":"1241","name":"ფილარმონია","lat":41.706728,"lon":44.786362,"vehicleMode":"BUS"},{"id":"1:17025","code":"818","name":"ოპერის თეატრი","lat":41.700712,"lon":44.795598,"vehicleMode":"BUS"},{"id":"1:17026","code":"801","name":"#24-ე საჯარო სკოლა","lat":41.716785,"lon":44.791898,"vehicleMode":"BUS"},{"id":"1:17027","code":"1213","name":"კოტე მარჯანიშვილის თეატრი","lat":41.708478,"lon":44.794602,"vehicleMode":"BUS"},{"id":"1:17028","code":"915","name":"მ/ს \"მარჯანიშვილი\"","lat":41.710186,"lon":44.796785,"vehicleMode":"BUS"},{"id":"1:17029","code":"1009","name":"მ/ს \"ტექნიკური უნივერსიტეტი\"","lat":41.719352,"lon":44.778321,"vehicleMode":"BUS"},{"id":"1:17030","code":"1011","name":"ტექნიკური უნივერსიტეტი III კორპუსი","lat":41.722095,"lon":44.777412,"vehicleMode":"BUS"},{"id":"1:17032","code":"1489","name":"მ/ს \"ისანი\"","lat":41.685845,"lon":44.840352,"vehicleMode":"BUS"},{"id":"1:17033","code":"1387","name":"ბეჟან კალანდაძის ქუჩა","lat":41.681434,"lon":44.824063,"vehicleMode":"BUS"},{"id":"1:17034","code":"3128","name":"ალექსანდრე შიმკევიჩის ქუჩა","lat":41.688453,"lon":44.816674,"vehicleMode":"BUS"},{"id":"1:17035","code":"1465","name":"აბანოთუბანი","lat":41.688974,"lon":44.812846,"vehicleMode":"BUS"},{"id":"1:17036","code":"1362","name":"მშვიდობის ხიდი","lat":41.692056,"lon":44.807876,"vehicleMode":"BUS"},{"id":"1:17037","code":"1464","name":"აბანოთუბანი","lat":41.688888,"lon":44.812876,"vehicleMode":"BUS"},{"id":"1:17038","code":"1365","name":"იბრაჰიმ-ისფაჰანლის ქუჩა","lat":41.687728,"lon":44.818586,"vehicleMode":"BUS"},{"id":"1:17039","code":"1367","name":"ბეჟან კალანდაძის ქუჩა","lat":41.682067,"lon":44.823712,"vehicleMode":"BUS"},{"id":"1:17040","code":"3886","name":"იოსებ გრიშაშვილის ქუჩა","lat":41.684178,"lon":44.822183,"vehicleMode":"BUS"},{"id":"1:17041","code":"3932","name":"ნიკოლოზ ბარათაშვილის ქუჩა","lat":41.696601,"lon":44.803955,"vehicleMode":"BUS"},{"id":"1:17042","code":"821","name":"მ/ს \"თავისუფლების მოედანი\"","lat":41.695413,"lon":44.800103,"vehicleMode":"BUS"},{"id":"1:17043","code":"3955","name":"სახელმწიფო უნივერსიტეტი","lat":41.709267,"lon":44.778718,"vehicleMode":"BUS"},{"id":"1:17044","code":"3960","name":"რაფიელ ერისთავის ქუჩა","lat":41.709027,"lon":44.77427,"vehicleMode":"BUS"},{"id":"1:17045","code":"3961","name":"მზიური","lat":41.709505,"lon":44.769233,"vehicleMode":"BUS"},{"id":"1:17046","code":"3962","name":"მზიური","lat":41.709559,"lon":44.768939,"vehicleMode":"BUS"},{"id":"1:17047","code":"3971","name":"ნიკოლოზ ყიფშიძის ქუჩა","lat":41.711325,"lon":44.75634,"vehicleMode":"BUS"},{"id":"1:17048","code":"3976","name":"ვაკის პარკი","lat":41.712208,"lon":44.751835,"vehicleMode":"BUS"},{"id":"1:17049","code":"3076","name":"სადგურის მოედანი","lat":41.72022,"lon":44.798803,"vehicleMode":"BUS"},{"id":"1:17050","code":"1265","name":"ილიას სახელმწიფო უნივერსიტეტი","lat":41.713574,"lon":44.748538,"vehicleMode":"BUS"},{"id":"1:17051","code":"3956","name":"სახელმწიფო უნივერსიტეტი","lat":41.70932,"lon":44.778426,"vehicleMode":"BUS"},{"id":"1:17052","code":"3957","name":"რაფიელ ერისთავის ქუჩა","lat":41.709063,"lon":44.774568,"vehicleMode":"BUS"},{"id":"1:17053","code":"810","name":"მერაბ კოსტავას ქუჩა #47","lat":41.709889,"lon":44.784586,"vehicleMode":"BUS"},{"id":"1:17054","code":"811","name":"გმირთა მოედანი","lat":41.714769,"lon":44.784136,"vehicleMode":"BUS"},{"id":"1:17055","code":"813","name":"მიხეილ წინამძღვრიშვილის ქუჩა","lat":41.719556,"lon":44.794267,"vehicleMode":"BUS"},{"id":"1:17056","code":"3726","name":"უნივერსიტეტის ქუჩა #2","lat":41.719322,"lon":44.741579,"vehicleMode":"BUS"},{"id":"1:17057","code":"3958","name":"რაფიელ ერისთავის ქუჩა","lat":41.708998,"lon":44.774279,"vehicleMode":"BUS"},{"id":"1:17058","code":"3964","name":"მზიური","lat":41.709575,"lon":44.768943,"vehicleMode":"BUS"},{"id":"1:17059","code":"3969","name":"ნიკოლოზ ყიფშიძის ქუჩა","lat":41.711283,"lon":44.756329,"vehicleMode":"BUS"},{"id":"1:17060","code":"3973","name":"ვაკის პარკი","lat":41.712135,"lon":44.752127,"vehicleMode":"BUS"},{"id":"1:17061","code":"4594","name":"კონსტანტინე სტანისლავსკის ქუჩა","lat":41.738867,"lon":44.780873,"vehicleMode":"BUS"},{"id":"1:17062","code":"3953","name":"სახელმწიფო უნივერსიტეტი","lat":41.709251,"lon":44.778715,"vehicleMode":"BUS"},{"id":"1:17063","code":"4596","name":"წყალტუბოს ქუჩა","lat":41.744577,"lon":44.778313,"vehicleMode":"BUS"},{"id":"1:17064","code":"4597","name":"მ/ს \"დიდუბე\"","lat":41.74935,"lon":44.777279,"vehicleMode":"BUS"},{"id":"1:17065","code":"4599","name":"მ/ს \"დიდუბე\"","lat":41.750054,"lon":44.77868,"vehicleMode":"BUS"},{"id":"1:17066","code":"924","name":"სიმონ ჩიქოვანის ქუჩა","lat":41.716152,"lon":44.778632,"vehicleMode":"BUS"},{"id":"1:17067","code":"3792","name":"უნივერსიტეტის მაღლივი კორპუსი","lat":41.717367,"lon":44.721926,"vehicleMode":"BUS"},{"id":"1:17068","code":"814","name":"მ/ს \"რუსთაველი\"","lat":41.703223,"lon":44.791209,"vehicleMode":"BUS"},{"id":"1:17069","code":"2914","name":"ალექსანდრე შიმკევიჩის ქუჩა","lat":41.688381,"lon":44.816617,"vehicleMode":"BUS"},{"id":"1:17070","code":"4587","name":"მ/ს \"წერეთელი\"","lat":41.72735,"lon":44.788726,"vehicleMode":"BUS"},{"id":"1:17071","code":"4588","name":"მ/ს \"წერეთელი\"","lat":41.727203,"lon":44.788685,"vehicleMode":"BUS"},{"id":"1:17072","code":"4591","name":"ეროვნული სკრინინგ ცენტრი","lat":41.735332,"lon":44.783028,"vehicleMode":"BUS"},{"id":"1:17073","code":"1495","name":"ევროპის მოედანი","lat":41.691003,"lon":44.811422,"vehicleMode":"BUS"},{"id":"1:17074","code":"1366","name":"300 არაგველის მემორიალი","lat":41.686566,"lon":44.819882,"vehicleMode":"BUS"},{"id":"1:17075","code":"3085","name":"300 არაგველის მემორიალი","lat":41.686398,"lon":44.820147,"vehicleMode":"BUS"},{"id":"1:17076","code":"3486","name":"ძმები სიმენსების ქუჩა","lat":41.688769,"lon":44.814761,"vehicleMode":"BUS"},{"id":"1:17077","code":"4224","name":"ცოტნე დადიანის II ჩიხი","lat":41.628365,"lon":44.921371,"vehicleMode":"BUS"},{"id":"1:17079","code":"925","name":"26 მაისის მოედანი","lat":41.71775,"lon":44.778192,"vehicleMode":"BUS"},{"id":"1:17080","code":"1687","name":"ქვემო ფონიჭალის ცენტრი","lat":41.644839,"lon":44.911589,"vehicleMode":"BUS"},{"id":"1:17081","code":"4589","name":"რაჟდენ გვეტაძის ქუჩა","lat":41.730915,"lon":44.785753,"vehicleMode":"BUS"},{"id":"1:17082","code":"4590","name":"რაჟდენ გვეტაძის ქუჩა","lat":41.730073,"lon":44.786211,"vehicleMode":"BUS"},{"id":"1:17083","code":"4592","name":"ეროვნული სკრინინგ ცენტრი","lat":41.734762,"lon":44.783342,"vehicleMode":"BUS"},{"id":"1:17084","code":"4575","name":"ნოე ჟორდანიას სანაპირო","lat":41.704277,"lon":44.7981,"vehicleMode":"BUS"},{"id":"1:17085","code":"1490","name":"დიმიტრი გულიას ხიდი","lat":41.676041,"lon":44.834371,"vehicleMode":"BUS"},{"id":"1:17086","code":"1388","name":"ვახტანგ გორგასლის მოედანი","lat":41.683515,"lon":44.82298,"vehicleMode":"BUS"},{"id":"1:17087","code":"820","name":"პირველი კლასიკური გიმნაზია","lat":41.69788,"lon":44.798582,"vehicleMode":"BUS"},{"id":"1:17088","code":"3974","name":"ვაკის პარკი","lat":41.712215,"lon":44.751847,"vehicleMode":"BUS"},{"id":"1:17089","code":"976","name":"ბაგების საბაგირო","lat":41.717352,"lon":44.718245,"vehicleMode":"BUS"},{"id":"1:17090","code":"3597","name":"#24-ე საჯარო სკოლა","lat":41.71714,"lon":44.791753,"vehicleMode":"BUS"},{"id":"1:17091","code":"3594","name":"ზურაბ ჭავჭავაძის ქუჩა","lat":41.711163,"lon":44.796195,"vehicleMode":"BUS"},{"id":"1:17092","code":"4252","name":"მიხეილ თამარაშვილის გამზირი #13","lat":41.717186,"lon":44.745386,"vehicleMode":"BUS"},{"id":"1:17093","code":"914","name":"გიორგი ტოვსტონოგოვის ქუჩა","lat":41.713414,"lon":44.794411,"vehicleMode":"BUS"},{"id":"1:17094","code":"3595","name":"გიორგი ტოვსტონოგოვის ქუჩა","lat":41.713426,"lon":44.794529,"vehicleMode":"BUS"},{"id":"1:17095","code":"3970","name":"ნიკოლოზ ყიფშიძის ქუჩა","lat":41.711337,"lon":44.756032,"vehicleMode":"BUS"},{"id":"1:17096","code":"3963","name":"მზიური","lat":41.709522,"lon":44.769239,"vehicleMode":"BUS"},{"id":"1:17097","code":"3959","name":"რაფიელ ერისთავის ქუჩა","lat":41.709092,"lon":44.774554,"vehicleMode":"BUS"},{"id":"1:17098","code":"4356","name":"ფილარმონია","lat":41.706816,"lon":44.786153,"vehicleMode":"BUS"},{"id":"1:17099","code":"4359","name":"სიმონ ჯანაშიას ქუჩა","lat":41.707947,"lon":44.783036,"vehicleMode":"BUS"},{"id":"1:171","code":"57","name":"რუსთაველის ქუჩა №44","lat":41.553694,"lon":45.017394,"vehicleMode":"BUS"},{"id":"1:17100","code":"819","name":"პირველი კლასიკური გიმნაზია","lat":41.698033,"lon":44.798617,"vehicleMode":"BUS"},{"id":"1:17101","code":"3836","name":"დიმიტრი გულიას მოედანი","lat":41.675566,"lon":44.828529,"vehicleMode":"BUS"},{"id":"1:17102","code":"822","name":"თავისუფლების მოედანი","lat":41.694033,"lon":44.801559,"vehicleMode":"BUS"},{"id":"1:17103","code":"3954","name":"სახელმწიფო უნივერსიტეტი","lat":41.709304,"lon":44.778423,"vehicleMode":"BUS"},{"id":"1:17104","code":"1240","name":"ილიას სახელმწიფო უნივერსიტეტი","lat":41.71361,"lon":44.746488,"vehicleMode":"BUS"},{"id":"1:17105","code":"3968","name":"ლადო კავსაძის ქუჩა","lat":41.710433,"lon":44.762113,"vehicleMode":"BUS"},{"id":"1:17106","code":"4358","name":"ფილარმონია","lat":41.706832,"lon":44.787076,"vehicleMode":"BUS"},{"id":"1:17107","code":"815","name":"მ/ს \"რუსთაველი\"","lat":41.70334,"lon":44.791208,"vehicleMode":"BUS"},{"id":"1:17108","code":"3965","name":"ლადო კავსაძის ქუჩა","lat":41.710364,"lon":44.762407,"vehicleMode":"BUS"},{"id":"1:17109","code":"3966","name":"ლადო კავსაძის ქუჩა","lat":41.710403,"lon":44.762111,"vehicleMode":"BUS"},{"id":"1:17110","code":"3972","name":"ნიკოლოზ ყიფშიძის ქუჩა","lat":41.711375,"lon":44.75604,"vehicleMode":"BUS"},{"id":"1:17111","code":"3967","name":"ლადო კავსაძის ქუჩა","lat":41.710397,"lon":44.762412,"vehicleMode":"BUS"},{"id":"1:17112","code":"806","name":"სიმონ ჯანაშიას ქუჩა","lat":41.708005,"lon":44.782879,"vehicleMode":"BUS"},{"id":"1:17113","code":"1466","name":"ორთაჭალის ქუჩა","lat":41.679106,"lon":44.824645,"vehicleMode":"BUS"},{"id":"1:17114","code":"4335","name":"თევდორე მღვდლის ქუჩა","lat":41.720637,"lon":44.796943,"vehicleMode":"BUS"},{"id":"1:17115","code":"4336","name":"თევდორე მღვდლის ქუჩა","lat":41.720555,"lon":44.796992,"vehicleMode":"BUS"},{"id":"1:17116","code":"3558","name":"გმირთა მოედანი","lat":41.714144,"lon":44.782996,"vehicleMode":"BUS"},{"id":"1:17117","code":"4593","name":"კონსტანტინე სტანისლავსკის ქუჩა","lat":41.73956,"lon":44.780523,"vehicleMode":"BUS"},{"id":"1:17118","code":"2153","name":"მიხეილ წინამძღვრიშვილის ქუჩა","lat":41.719374,"lon":44.793432,"vehicleMode":"BUS"},{"id":"1:17119","code":"1691","name":"რუსთავის გზატკეცილი #22","lat":41.654405,"lon":44.901609,"vehicleMode":"BUS"},{"id":"1:17120","code":"1676","name":"ქვემო ფონიჭალის ცენტრი","lat":41.644779,"lon":44.911761,"vehicleMode":"BUS"},{"id":"1:17121","code":"4145","name":"უნივერსიტეტის მაღლივი კორპუსი","lat":41.717443,"lon":44.721355,"vehicleMode":"BUS"},{"id":"1:17122","code":"3714","name":"ოლიმპიური სასახლე","lat":41.717532,"lon":44.727611,"vehicleMode":"BUS"},{"id":"1:17123","code":"3711","name":"უნივერსიტეტის ქუჩა #11","lat":41.718194,"lon":44.734848,"vehicleMode":"BUS"},{"id":"1:17124","code":"3569","name":"იუსტიციის სახლი","lat":41.698677,"lon":44.805604,"vehicleMode":"BUS"},{"id":"1:17125","code":"1390","name":"იბრაჰიმ-ისფაჰანლის ქუჩა","lat":41.687792,"lon":44.818661,"vehicleMode":"BUS"},{"id":"1:17126","code":"3709","name":"უნივერსიტეტის ქუჩა #1","lat":41.719956,"lon":44.744397,"vehicleMode":"BUS"},{"id":"1:17127","code":"930","name":"სულხან ცინცაძის ქუჩა","lat":41.722313,"lon":44.773651,"vehicleMode":"BUS"},{"id":"1:17128","code":"2119","name":"მ/ს \"ტექნიკური უნივერსიტეტი\"","lat":41.72124,"lon":44.774732,"vehicleMode":"BUS"},{"id":"1:17129","code":"2994","name":"ელენე ახვლედიანის აღმართი","lat":41.697618,"lon":44.809107,"vehicleMode":"BUS"},{"id":"1:17130","code":"3087","name":"სიმონ ჩიქოვანის ქუჩა","lat":41.716309,"lon":44.778782,"vehicleMode":"BUS"},{"id":"1:17131","code":"867","name":"მ/ს \"მარჯანიშვილი\"","lat":41.709477,"lon":44.797614,"vehicleMode":"BUS"},{"id":"1:17132","code":"3598","name":"მურმან ლებანიძის ქუჩა","lat":41.718975,"lon":44.79042,"vehicleMode":"BUS"},{"id":"1:17133","code":"4585","name":"ბორის პაიჭაძის ეროვნული სტადიონი","lat":41.722959,"lon":44.791619,"vehicleMode":"BUS"},{"id":"1:17134","code":"4586","name":"ბორის პაიჭაძის ეროვნული სტადიონი","lat":41.722869,"lon":44.791456,"vehicleMode":"BUS"},{"id":"1:17135","code":"4502","name":"უნივერსიტეტის ქუჩა #2","lat":41.719404,"lon":44.741557,"vehicleMode":"BUS"},{"id":"1:17136","code":"4595","name":"წყალტუბოს ქუჩა","lat":41.745373,"lon":44.77813,"vehicleMode":"BUS"},{"id":"1:17137","code":"3599","name":"მუსკომედიის და დრამის თეატრი","lat":41.720399,"lon":44.789251,"vehicleMode":"BUS"},{"id":"1:17138","code":"912","name":"მუსკომედიისა და დრამის თეატრი","lat":41.720565,"lon":44.788983,"vehicleMode":"BUS"},{"id":"1:17139","code":"4503","name":"ოლიმპიური სასახლე","lat":41.717615,"lon":44.727606,"vehicleMode":"BUS"},{"id":"1:174","code":"58","name":"რუსთაველის ქუჩა (ქიმიკოსთა სახლი)","lat":41.550287,"lon":45.015203,"vehicleMode":"BUS"},{"id":"1:177","code":"59","name":"რუსთაველის ქუჩა (ბათუმის  სკვერი)","lat":41.546782,"lon":45.012915,"vehicleMode":"BUS"},{"id":"1:17850","code":"4600","name":"მესხიშვილის წრე","lat":41.567001,"lon":44.985588,"vehicleMode":"BUS"},{"id":"1:183","code":"61","name":"კლდიაშვილის ქუჩა №7","lat":41.555455,"lon":44.98398,"vehicleMode":"BUS"},{"id":"1:186","code":"62","name":"კლდიაშვილის ქუჩა №15","lat":41.556832,"lon":44.987832,"vehicleMode":"BUS"},{"id":"1:189","code":"63","name":"თოდრიას ქუჩა №5","lat":41.558901,"lon":44.987401,"vehicleMode":"BUS"},{"id":"1:192","code":"64","name":"თოდრიას ქუჩა №15","lat":41.561625,"lon":44.985624,"vehicleMode":"BUS"},{"id":"1:195","code":"65","name":"თოდრიის ქუჩა (წრე)","lat":41.564993,"lon":44.984226,"vehicleMode":"BUS"},{"id":"1:198","code":"100","name":"გაგარინის ქუჩა №12 (მეტალურგიული კომბინატი )","lat":41.539616,"lon":45.021242,"vehicleMode":"BUS"},{"id":"1:201","code":"66","name":"მე-12 მკ/რნი №6","lat":41.56807,"lon":44.986498,"vehicleMode":"BUS"},{"id":"1:204","code":"67","name":"12 მ.კ რაიონი 3 კორპუსი","lat":41.570052,"lon":44.987905,"vehicleMode":"BUS"},{"id":"1:20579","code":"574","name":"კოსტავას გამზირი #18","lat":41.543578,"lon":45.01053,"vehicleMode":"BUS"},{"id":"1:20585","code":"575","name":"სანაპიროს ქუჩა მე 11 ე მკ/რნ-ს მიმდებარედ","lat":41.566056,"lon":44.997032,"vehicleMode":"BUS"},{"id":"1:207","code":"101","name":"კოსტავას  ქუჩა №34","lat":41.54143,"lon":45.016624,"vehicleMode":"BUS"},{"id":"1:210","code":"102","name":"კოსტავას ქუჩა №22","lat":41.542729,"lon":45.012958,"vehicleMode":"BUS"},{"id":"1:213","code":"68","name":"მე-12 მკ/რნი (რაგბის მოედანი)","lat":41.570554,"lon":44.993028,"vehicleMode":"BUS"},{"id":"1:216","code":"69","name":"აღმაშენებლის გამზირი მე-18 მკ/რნი შესასვლელი","lat":41.573459,"lon":44.985977,"vehicleMode":"BUS"},{"id":"1:22","code":"5","name":"მარის არხის დასახლება №2 (საქანელები)","lat":41.520362,"lon":45.025873,"vehicleMode":"BUS"},{"id":"1:2243","code":"220","name":"ავტობაზრობა","lat":41.564248,"lon":44.955516,"vehicleMode":"BUS"},{"id":"1:225","code":"71","name":"მე-17 მკ/რნი №15 კორპუსის მოპირდაპირედ","lat":41.574883,"lon":44.979045,"vehicleMode":"BUS"},{"id":"1:231","code":"73","name":"21-ე მკ/რნი №1 კორპუსის მოპირდაპირედ","lat":41.573715,"lon":44.969214,"vehicleMode":"BUS"},{"id":"1:2327","code":"222","name":"ფონიჭალა","lat":41.653171,"lon":44.904103,"vehicleMode":"BUS"},{"id":"1:234","code":"74","name":"ქუთაისის ქუჩა (№22 სკოლის მოპირდაპირედ)","lat":41.571811,"lon":44.965682,"vehicleMode":"BUS"},{"id":"1:237","code":"75","name":"ჟ. შარტავას გამზირი №14","lat":41.56905,"lon":44.964746,"vehicleMode":"BUS"},{"id":"1:240","code":"76","name":"შარტავას გამზ. №8","lat":41.567036,"lon":44.969573,"vehicleMode":"BUS"},{"id":"1:243","code":"104","name":"მოდებაძეს ქუჩა (მე-17 სკვერთან) 1 კ","lat":41.572028,"lon":44.977015,"vehicleMode":"BUS"},{"id":"1:249","code":"77","name":"შარტავას გამზირი (რუსთაველის მოედანი)","lat":41.562696,"lon":44.978159,"vehicleMode":"BUS"},{"id":"1:25","code":"6","name":"მშენებელთა  ქ. ( პირველ ზონასთან)","lat":41.526913,"lon":45.020259,"vehicleMode":"BUS"},{"id":"1:252","code":"106","name":"მე-17 მკ/რნი №13 (მადაგონის მოპირდაპირედ)","lat":41.57456,"lon":44.982972,"vehicleMode":"BUS"},{"id":"1:255","code":"78","name":"ხალხთა მეგობრობის გამზირი №26","lat":41.558692,"lon":44.981024,"vehicleMode":"BUS"},{"id":"1:258","code":"107","name":"მე-16 მკ/რნი №9","lat":41.573286,"lon":44.986109,"vehicleMode":"BUS"},{"id":"1:2580","code":"229","name":"თავგორაშვილის ქ. 26 სკოლის მოპირდაპირედ","lat":41.555069,"lon":44.991037,"vehicleMode":"BUS"},{"id":"1:2583","code":"230","name":"თავგორაშვულის ქ. 26 სკოლასთან","lat":41.555234,"lon":44.991192,"vehicleMode":"BUS"},{"id":"1:264","code":"109","name":"12 მკ.რაიონი 3 კორპუსის მოპირდაპირედ","lat":41.57012,"lon":44.987864,"vehicleMode":"BUS"},{"id":"1:267","code":"110","name":"„სტამბულის\" ბაზრის შესასვლელთან","lat":41.56837,"lon":44.986542,"vehicleMode":"BUS"},{"id":"1:276","code":"113","name":"ხალხთა მეგობრობის გამზირი (არქივი)","lat":41.555641,"lon":44.983029,"vehicleMode":"BUS"},{"id":"1:27820","code":"576","name":"დავით გარეჯის 21ა","lat":41.550919,"lon":45.020987,"vehicleMode":"BUS"},{"id":"1:27823","code":"577","name":"დავით გარეჯის 21ა (მოპირდაპირედ)","lat":41.551067,"lon":45.021068,"vehicleMode":"BUS"},{"id":"1:279","code":"114","name":"რუსთაველის ქუჩა (მუსიკალურის მოპირდაპირე)","lat":41.544931,"lon":45.011725,"vehicleMode":"BUS"},{"id":"1:28038","code":"578","name":"სანაპიროს ქუჩა 39","lat":41.560819,"lon":44.993369,"vehicleMode":"BUS"},{"id":"1:28041","code":"579","name":"სანაპიროს ქუჩა #47","lat":41.561347,"lon":44.993609,"vehicleMode":"BUS"},{"id":"1:28048","code":"580","name":"მე12 მკ/რ #8","lat":41.567292,"lon":44.987412,"vehicleMode":"BUS"},{"id":"1:28053","code":"581","name":"ცურტაველის ქუჩა #1 (მოპირდაპირედ)","lat":41.547849,"lon":44.991259,"vehicleMode":"BUS"},{"id":"1:282","code":"115","name":"რუსთაველის ქუჩა №31","lat":41.553189,"lon":45.017263,"vehicleMode":"BUS"},{"id":"1:285","code":"116","name":"დ. გარეჯის ქუჩა №19","lat":41.552051,"lon":45.019923,"vehicleMode":"BUS"},{"id":"1:288","code":"117","name":"დ. გარეჯის ქუჩა („სოკარ ჯორჯია გაზი\" გაზ გ/ს)","lat":41.548221,"lon":45.023608,"vehicleMode":"BUS"},{"id":"1:291","code":"118","name":"გაგარინის ქუჩა (რესტორანი შანხაის მ/ტ)","lat":41.546114,"lon":45.0249,"vehicleMode":"BUS"},{"id":"1:2924","code":"233","name":"მშენებლთა 64 (უსინათლოები)","lat":41.521227,"lon":45.025081,"vehicleMode":"BUS"},{"id":"1:2925","code":"234","name":"მშენებელთა ქუჩა ყოფილი (ვენ დისპანსერი)","lat":41.532321,"lon":45.01508,"vehicleMode":"BUS"},{"id":"1:2926","code":"235","name":"ფიროსმანის ქუჩა 31","lat":41.534888,"lon":45.015234,"vehicleMode":"BUS"},{"id":"1:2929","code":"236","name":"ფიროსმანის ქუჩა 30","lat":41.535096,"lon":45.015369,"vehicleMode":"BUS"},{"id":"1:2932","code":"237","name":"თბილისის ქუჩის და ფალიაშვიულის კვეთა","lat":41.552471,"lon":44.976277,"vehicleMode":"BUS"},{"id":"1:2935","code":"238","name":"ცურტაველის 1 ნომერი","lat":41.548341,"lon":44.990961,"vehicleMode":"BUS"},{"id":"1:294","code":"119","name":"გაგარინის ქუჩა (ყოფილი ტექნიკუმი)","lat":41.544258,"lon":45.023811,"vehicleMode":"BUS"},{"id":"1:2966","code":"289","name":"თავგორაშვილის ქუჩა #8","lat":41.552029,"lon":44.991978,"vehicleMode":"BUS"},{"id":"1:2971","code":"290","name":"თავგორაშვილის ქუჩა #8 მოპირდაპირედ","lat":41.552163,"lon":44.992039,"vehicleMode":"BUS"},{"id":"1:2976","code":"291","name":"სანაპიროს ქუჩა(მე11 მკ/რ #1 მოპირდაპირედ)","lat":41.564735,"lon":44.996371,"vehicleMode":"BUS"},{"id":"1:303","code":"121","name":"გაგარინის ქუჩა (სამკერვალო)","lat":41.534263,"lon":45.017318,"vehicleMode":"BUS"},{"id":"1:306","code":"122","name":"მე-19 მკ/რნი (მადაგონის მიმდებარე)","lat":41.574794,"lon":44.982852,"vehicleMode":"BUS"},{"id":"1:309","code":"80","name":"კოსტავას გამზირი №33","lat":41.541146,"lon":45.01647,"vehicleMode":"BUS"},{"id":"1:31","code":"8","name":"ფიროსმანის ქუჩა №16 (მონიტორი)","lat":41.537693,"lon":45.012805,"vehicleMode":"BUS"},{"id":"1:312","code":"123","name":"მე-14 მკ/რნი 10კ კლინიკა","lat":41.563951,"lon":44.982021,"vehicleMode":"BUS"},{"id":"1:315","code":"81","name":"დ. გარეჯის ქუჩა (ტროლეიბუსების ყოფილი სადგური)","lat":41.548025,"lon":45.024035,"vehicleMode":"BUS"},{"id":"1:318","code":"82","name":"დ. გარეჯის ქუჩა №16","lat":41.552071,"lon":45.020134,"vehicleMode":"BUS"},{"id":"1:321","code":"83","name":"დ. გარეჯის ქუჩა № 8","lat":41.554722,"lon":45.017468,"vehicleMode":"BUS"},{"id":"1:336","code":"90","name":"აღმაშენებლის ქ. მე16 მკ/რ #7","lat":41.572209,"lon":44.98853,"vehicleMode":"BUS"},{"id":"1:339","code":"91","name":"მე-17 მკ/რნი 1 კორპუსის მოპირდაპირედ","lat":41.57198,"lon":44.976769,"vehicleMode":"BUS"},{"id":"1:34","code":"9","name":"ფიროსმანის ქუჩა (№1 პოლიკლინიკა)","lat":41.539466,"lon":45.011046,"vehicleMode":"BUS"},{"id":"1:348","code":"126","name":"თბილისის ქუჩა №9","lat":41.548682,"lon":44.987827,"vehicleMode":"BUS"},{"id":"1:354","code":"128","name":"თბილისის ქუჩა №25","lat":41.550292,"lon":44.983419,"vehicleMode":"BUS"},{"id":"1:357","code":"129","name":"თბილისის ქუჩა №35","lat":41.551452,"lon":44.980217,"vehicleMode":"BUS"},{"id":"1:3594","code":"250","name":"ლომოურის ქუჩა (კლინიკა \"რუსთავი\")","lat":41.559317,"lon":44.969483,"vehicleMode":"BUS"},{"id":"1:360","code":"130","name":"ფალიაშვილის ქუჩა (ეკლესია)","lat":41.55214,"lon":44.978334,"vehicleMode":"BUS"},{"id":"1:37","code":"10","name":"ფიროსმანის ქუჩა (თეატრის მოპირდაპირედ)  - მონიტორი","lat":41.541598,"lon":45.010082,"vehicleMode":"BUS"},{"id":"1:372","code":"134","name":"სასტუმროს მ/ტ","lat":41.562143,"lon":44.97751,"vehicleMode":"BUS"},{"id":"1:375","code":"135","name":"მე 20 მკ.რაიონი 25 სკოლასთან","lat":41.57025,"lon":44.970275,"vehicleMode":"BUS"},{"id":"1:381","code":"179","name":"რჩეულიშვილის ქუჩა №8","lat":41.562115,"lon":45.02235,"vehicleMode":"BUS"},{"id":"1:387","code":"180","name":"რჩეულიშვილის ქუჩა №4","lat":41.562942,"lon":45.020196,"vehicleMode":"BUS"},{"id":"1:390","code":"138","name":"აღმაშენებლის გამზირი (რაგბის მოედანი) მოპირდაპირედ","lat":41.570422,"lon":44.992911,"vehicleMode":"BUS"},{"id":"1:393","code":"181","name":"გიორგაძეს ქუჩა №4","lat":41.561755,"lon":45.01806,"vehicleMode":"BUS"},{"id":"1:396","code":"139","name":"მე-11 მკ/რნი  №3","lat":41.564797,"lon":44.995982,"vehicleMode":"BUS"},{"id":"1:399","code":"140","name":"პუშკინის ქუჩა (საცურაო აუზი)","lat":41.56604,"lon":44.991865,"vehicleMode":"BUS"},{"id":"1:402","code":"182","name":"გიორგაძეს ქუჩა №22","lat":41.559677,"lon":45.020084,"vehicleMode":"BUS"},{"id":"1:405","code":"183","name":"გიორგაძეს ქუჩა №34","lat":41.557356,"lon":45.022348,"vehicleMode":"BUS"},{"id":"1:411","code":"141","name":"ლეონიძეს ქუჩა №22 მოპირდაპირედ","lat":41.569232,"lon":44.979979,"vehicleMode":"BUS"},{"id":"1:417","code":"142","name":"ლეონიძეს ქუჩა №30 მოპირდაპირედ","lat":41.570027,"lon":44.978095,"vehicleMode":"BUS"},{"id":"1:420","code":"143","name":"ლეონიძეს ქუჩა ავტოსახელოსნოების დასაწყისი","lat":41.570974,"lon":44.975889,"vehicleMode":"BUS"},{"id":"1:4212","code":"295","name":"ხალხთა მეგობრობის გამზირი (სასტუმრო რუსთავის მ/ტ)","lat":41.561571,"lon":44.979049,"vehicleMode":"BUS"},{"id":"1:426","code":"144","name":"მე 20 მკ.რაიონი 25 სკოლის პირდაპირ","lat":41.570037,"lon":44.969863,"vehicleMode":"BUS"},{"id":"1:43","code":"12","name":"კოსტავას გამზირი №12","lat":41.544652,"lon":45.007646,"vehicleMode":"BUS"},{"id":"1:430","code":"187","name":"გაგარინის ქუჩა (ყოფილი ტექნიკუმი)","lat":41.544311,"lon":45.02372,"vehicleMode":"BUS"},{"id":"1:433","code":"146","name":"შარტავას გამზ. №4ა","lat":41.565646,"lon":44.972885,"vehicleMode":"BUS"},{"id":"1:436","code":"188","name":"ბათუმის ქუჩა (ძველი ბაზარი)","lat":41.545355,"lon":45.017968,"vehicleMode":"BUS"},{"id":"1:439","code":"147","name":"შარტავას გამზ. №2","lat":41.564371,"lon":44.976039,"vehicleMode":"BUS"},{"id":"1:445","code":"190","name":"რუსთაველის ქუჩა (მუსიკალურის მხარე)","lat":41.544919,"lon":45.011909,"vehicleMode":"BUS"},{"id":"1:454","code":"150","name":"თბილისის ქუჩა გოგინაშვილის კვეთაზე","lat":41.551513,"lon":44.978752,"vehicleMode":"BUS"},{"id":"1:457","code":"151","name":"თბილისის ქუჩა №26","lat":41.549521,"lon":44.984334,"vehicleMode":"BUS"},{"id":"1:46","code":"13","name":"კოსტავას გამზირი №2","lat":41.545831,"lon":45.00441,"vehicleMode":"BUS"},{"id":"1:460","code":"152","name":"თბილისის ქუჩა №10","lat":41.548297,"lon":44.987678,"vehicleMode":"BUS"},{"id":"1:463","code":"191","name":"მესხიშვილის ქუჩა №9","lat":41.563853,"lon":44.98223,"vehicleMode":"BUS"},{"id":"1:466","code":"153","name":"კოსტავას ქ. 23","lat":41.54253,"lon":45.012881,"vehicleMode":"BUS"},{"id":"1:469","code":"192","name":"ლეონიძეს ქუჩა №12 (მოპირდაპირედ)","lat":41.567615,"lon":44.983952,"vehicleMode":"BUS"},{"id":"1:472","code":"193","name":"ჭავჭავაძესა და ბათუმის ქუჩების კვეთა","lat":41.545449,"lon":45.013576,"vehicleMode":"BUS"},{"id":"1:475","code":"194","name":"ბათუმის ქუჩა (ძველი ბაზარის მოპირდაპირედ)","lat":41.544673,"lon":45.017643,"vehicleMode":"BUS"},{"id":"1:478","code":"195","name":"სამგორის ქუჩა (რჩეულიშვილის კვეთა)","lat":41.559632,"lon":45.028335,"vehicleMode":"BUS"},{"id":"1:481","code":"196","name":"სამგორის ქუჩა (გრანელის კვეთა)","lat":41.557825,"lon":45.02712,"vehicleMode":"BUS"},{"id":"1:484","code":"197","name":"სამგორის ქუჩა (ტოლსტოის კვეთა)","lat":41.561494,"lon":45.02964,"vehicleMode":"BUS"},{"id":"1:487","code":"198","name":"მაზნიაშვილის ქუჩა (ფოლად კონსტრუქ. ქარხანა)","lat":41.562771,"lon":45.031643,"vehicleMode":"BUS"},{"id":"1:49","code":"14","name":"ხალხთა მეგობრობის გამზირი (გმირთა მოედანი)","lat":41.550605,"lon":44.992673,"vehicleMode":"BUS"},{"id":"1:490","code":"199","name":"მაზნიაშვილის ქუჩა (ვაგონშემკეთებელი) მოპირდაპირედ","lat":41.560274,"lon":45.03448,"vehicleMode":"BUS"},{"id":"1:493","code":"201","name":"ზედგენიძეს ქუჩა (მაზნიაშვილის კვეთა)","lat":41.555314,"lon":45.036551,"vehicleMode":"BUS"},{"id":"1:499","code":"203","name":"ჯავახიშვილის ქუჩის დასაწყისი","lat":41.550277,"lon":45.029363,"vehicleMode":"BUS"},{"id":"1:502","code":"204","name":"ჯავახიშვილის ქუჩის დასაწყისი (მოპირდაპირედ)","lat":41.550197,"lon":45.029482,"vehicleMode":"BUS"},{"id":"1:508","code":"206","name":"ზედგენიძეს ქუჩა (მაზნიაშვილის კვეთა) მოპირდაპირედ","lat":41.555307,"lon":45.036693,"vehicleMode":"BUS"},{"id":"1:512","code":"208","name":"მაზნიაშვილის ქუჩა (ვაგონშემკეთებელი)","lat":41.560195,"lon":45.034329,"vehicleMode":"BUS"},{"id":"1:517","code":"209","name":"მაზნიაშვილის ქუჩა (ფოლად კონსტრუქ. ქარხანა) მოპირდაპირედ","lat":41.562701,"lon":45.031942,"vehicleMode":"BUS"},{"id":"1:52","code":"15","name":"ხალხთა მეგობრობის გამზირი №5","lat":41.55177,"lon":44.988299,"vehicleMode":"BUS"},{"id":"1:544","code":"52","name":"ხალხთა მეგობრობის გამზირი №9 (ფოსტა)","lat":41.552529,"lon":44.986488,"vehicleMode":"BUS"},{"id":"1:55","code":"16","name":"ხალხთა მეგობრობის გამზ. (იუსტიციის სახლი)","lat":41.555869,"lon":44.98328,"vehicleMode":"BUS"},{"id":"1:58","code":"17","name":"ხალხთა მეგობრობის გამზ. №41","lat":41.5591,"lon":44.981144,"vehicleMode":"BUS"},{"id":"1:603","code":"92","name":"ხალხთა მეგობრობის გამზირი №6 (უნივერმაღი)","lat":41.55144,"lon":44.988717,"vehicleMode":"BUS"},{"id":"1:61","code":"18","name":"ხალხთა მეგობრობის გამზ. (№2 პოლიკლინიკა)","lat":41.562368,"lon":44.979173,"vehicleMode":"BUS"},{"id":"1:612","code":"178","name":"რჩეულიშვილის ქ. №10ა","lat":41.561389,"lon":45.024166,"vehicleMode":"BUS"},{"id":"1:615","code":"200","name":"მაზნიაშვილის ქუჩა (ბელიაშვილის კვეთა)","lat":41.557123,"lon":45.036301,"vehicleMode":"BUS"},{"id":"1:64","code":"19","name":"ჟ. შარტავას გამზირი №7","lat":41.564645,"lon":44.976194,"vehicleMode":"BUS"},{"id":"1:644","code":"79","name":"მე-17 მკ/რნი №28","lat":41.57488,"lon":44.979212,"vehicleMode":"BUS"},{"id":"1:668","code":"95","name":"რუსთაველის ქუჩა (ქიმიკოსთა სახლი)","lat":41.550162,"lon":45.015327,"vehicleMode":"BUS"},{"id":"1:67","code":"20","name":"ჟ. შარტავას გამზირი №15","lat":41.565753,"lon":44.973673,"vehicleMode":"BUS"},{"id":"1:70","code":"21","name":"ჟ. შარტავას გამზირი №21","lat":41.567533,"lon":44.969223,"vehicleMode":"BUS"},{"id":"1:73","code":"22","name":"ჟ. შარტავას გამზირი №25","lat":41.569296,"lon":44.964999,"vehicleMode":"BUS"},{"id":"1:7424","code":"302","name":"მშენებელთა ქუჩა(რუსთავის ცენტრალური პარკი)","lat":41.54536,"lon":45.00305,"vehicleMode":"BUS"},{"id":"1:7427","code":"303","name":"მშენებელთა ქუჩა მე2_ე სკოლის მოპირდაპირედ","lat":41.543342,"lon":45.006031,"vehicleMode":"BUS"},{"id":"1:7430","code":"304","name":"მშენებელთა ქუჩა(რუსთავის ფოლადის სტადიონი)","lat":41.540484,"lon":45.007706,"vehicleMode":"BUS"},{"id":"1:7433","code":"305","name":"მშენებელთა ქუჩა(რუსთავის მხარეთმცოდნეობის მუზეუმი)","lat":41.538435,"lon":45.008995,"vehicleMode":"BUS"},{"id":"1:7436","code":"306","name":"მშენებელთა ქუჩა-ბოსტან ქალაქის ქუჩის კვეთა","lat":41.535912,"lon":45.011401,"vehicleMode":"BUS"},{"id":"1:7439","code":"307","name":"მშენებელთა ქუჩა-ბოსტან-ქალაქის ქუჩის კვეთა","lat":41.535969,"lon":45.011574,"vehicleMode":"BUS"},{"id":"1:7442","code":"308","name":"მშენებელთა ქუჩა(რუსთავის მხარეთმცოდნეობის მუზეუმი მოპირდაპირედ)","lat":41.538638,"lon":45.008966,"vehicleMode":"BUS"},{"id":"1:7445","code":"309","name":"მშენებელთა ქუჩა(რუსთავის ფოლადის სტადიონის მოპირდაპირედ)","lat":41.54109,"lon":45.007833,"vehicleMode":"BUS"},{"id":"1:7448","code":"310","name":"მშენებელთა ქუჩა(მე-2_ე სკოლა)","lat":41.543511,"lon":45.006175,"vehicleMode":"BUS"},{"id":"1:7451","code":"311","name":"მშენებელთა ქუჩა(კოსტავას 1)","lat":41.544697,"lon":45.004607,"vehicleMode":"BUS"},{"id":"1:76","code":"23","name":"ქუთაისის ქუჩა №22 სკოლა","lat":41.571949,"lon":44.966112,"vehicleMode":"BUS"},{"id":"1:765","code":"189","name":"რუსთაველის ქ. (ბათუმის სკვერის მოპირდაპირედ)","lat":41.546731,"lon":45.013154,"vehicleMode":"BUS"},{"id":"1:79","code":"24","name":"21-ე მკ/რნი #6","lat":41.573954,"lon":44.968277,"vehicleMode":"BUS"},{"id":"1:82","code":"25","name":"21-ე მკ/რნი №12 კორპუსის მიმდებარე ტერ.","lat":41.572716,"lon":44.971269,"vehicleMode":"BUS"},{"id":"1:88","code":"27","name":"ლეონიძეს ქუჩა №26","lat":41.569622,"lon":44.978709,"vehicleMode":"BUS"},{"id":"1:91","code":"28","name":"ლეონიძეს ქუჩა №22","lat":41.56872,"lon":44.98089,"vehicleMode":"BUS"},{"id":"1:9364","code":"504","name":"მე 18-19 მიკრო რაიონის სკვერი","lat":41.575654,"lon":44.986515,"vehicleMode":"BUS"},{"id":"1:9367","code":"505","name":"მე19 მკ/რ (მე 10 სკოლის მოპირდაპირედ)","lat":41.576674,"lon":44.986,"vehicleMode":"BUS"},{"id":"1:9370","code":"506","name":"მე19 მკ/რ #9 მოპირდაპირედ","lat":41.579249,"lon":44.985687,"vehicleMode":"BUS"},{"id":"1:9375","code":"507","name":"მე19 მკ/რ #12 მოპირდაპირედ","lat":41.57807,"lon":44.981393,"vehicleMode":"BUS"},{"id":"1:9378","code":"508","name":"მე19 მკ/რ #12","lat":41.578359,"lon":44.981749,"vehicleMode":"BUS"},{"id":"1:9379","code":"510","name":"მე19 მკ/რ #9","lat":41.57924,"lon":44.985317,"vehicleMode":"BUS"},{"id":"1:9382","code":"511","name":"მე19 მკ/რ (მე10 სკოლა)","lat":41.575687,"lon":44.985352,"vehicleMode":"BUS"},{"id":"1:94","code":"29","name":"ლეონიძეს ქუჩა №12","lat":41.567206,"lon":44.984524,"vehicleMode":"BUS"},{"id":"1:97","code":"30","name":"მესხიშვილის ქუჩა (მაღაზია „სპარის“ წინ) - მონიტორი","lat":41.564804,"lon":44.983837,"vehicleMode":"BUS"}]